name,code,alias,level,status,latitude,longitude,parent_name,parent_code
Мурманская область,47,murmanskaia-oblast,1,FALSE,67.926546,34.157046,,
Ненецкий автономный округ,10011,nenetskii-avtonomnyi-okrug,1,FALSE,67.714212,54.365062,,
Красноярский край,4,krasnoiarskii-krai,1,FALSE,67.236779,95.968477,,
Ямало-Ненецкий автономный округ,71140,iamalo-nenetskii-avtonomnyi-okrug,1,FALSE,66.086435,80.005397,,
Чукотский автономный округ,77,chukotskii-avtonomnyi-okrug,1,FALSE,65.982613,174.432311,,
Республика Саха (Якутия),98,respublika-sakha-iakutiia,1,FALSE,65.061073,119.845652,,
Республика Коми,87,respublika-komi,1,FALSE,64.125463,54.789669,,
Архангельская область,11,arkhangelskaia-oblast,1,FALSE,63.637517,43.336661,,
Республика Карелия,86,respublika-kareliia,1,FALSE,63.621324,33.232608,,
Магаданская область,44,magadanskaia-oblast,1,FALSE,62.575815,154.036835,,
Ханты-Мансийский автономный округ - Югра,71100,khanty-mansiiskii-avtonomnyi-okrug-iugra,1,FALSE,61.588912,65.897508,,
Камчатский край,30,kamchatskii-krai,1,FALSE,61.350179,169.782981,,
Вологодская область,19,vologodskaia-oblast,1,FALSE,60.138988,44.049618,,
Санкт-Петербург,40,sankt-peterburg,1,TRUE,59.939095,30.315868,,
Ленинградская область,41,leningradskaia-oblast,1,TRUE,59.337013,29.608975,,
Пермский край,57,permskii-krai,1,FALSE,59.117698,56.225679,,
Томская область,69,tomskaia-oblast,1,TRUE,58.949193,78.63728,,
Кировская область,33,kirovskaia-oblast,1,TRUE,58.603581,49.667978,,
Свердловская область,65,sverdlovskaia-oblast,1,FALSE,58.586755,61.530761,,
Костромская область,34,kostromskaia-oblast,1,FALSE,58.456003,43.788495,,
Новгородская область,49,novgorodskaia-oblast,1,FALSE,58.307715,32.490222,,
Ярославская область,78,iaroslavskaia-oblast,1,TRUE,57.817361,39.105138,,
Тюменская область,71,tiumenskaia-oblast,1,FALSE,57.541821,68.096045,,
Псковская область,58,pskovskaia-oblast,1,FALSE,57.236486,29.236911,,
Удмуртская Республика,94,udmurtskaia-respublika,1,FALSE,57.166784,52.796972,,
Иркутская область,25,irkutskaia-oblast,1,TRUE,57.100294,106.363305,,
Тверская область,28,tverskaia-oblast,1,FALSE,57.093033,34.706195,,
Ивановская область,24,ivanovskaia-oblast,1,FALSE,56.967836,41.966406,,
Республика Марий Эл,88,respublika-marii-el,1,TRUE,56.485739,48.197858,,
Нижегородская область,22,nizhegorodskaia-oblast,1,TRUE,56.312764,44.611891,,
Омская область,52,omskaia-oblast,1,FALSE,56.103472,73.344416,,
Владимирская область,17,vladimirskaia-oblast,1,TRUE,55.904195,40.898894,,
Московская область,46,moskovskaia-oblast,1,TRUE,55.815792,37.380031,,
Республика Татарстан (Татарстан),92,respublika-tatarstan-tatarstan,1,TRUE,55.779013,49.110753,,
Москва,45,moskva,1,TRUE,55.753215,37.622504,,
Новосибирская область,50,novosibirskaia-oblast,1,TRUE,55.582396,79.264861,,
Чувашская Республика - Чувашия,97,chuvashskaia-respublika-chuvashiia,1,TRUE,55.492023,47.086875,,
Курганская область,37,kurganskaia-oblast,1,FALSE,55.448347,64.809405,,
Смоленская область,66,smolenskaia-oblast,1,FALSE,54.956192,32.998543,,
Кемеровская область,32,kemerovskaia-oblast,1,FALSE,54.779047,87.207361,,
Калининградская область,27,kaliningradskaia-oblast,1,FALSE,54.754365,21.22993,,
Республика Бурятия,81,respublika-buriatiia,1,FALSE,54.544222,112.348699,,
Челябинская область,75,cheliabinskaia-oblast,1,FALSE,54.446199,60.395641,,
Калужская область,29,kaluzhskaia-oblast,1,FALSE,54.3718,35.445185,,
Рязанская область,61,riazanskaia-oblast,1,TRUE,54.333363,40.62524,,
Республика Башкортостан,80,respublika-bashkortostan,1,TRUE,54.2715,56.525537,,
Республика Мордовия,89,respublika-mordoviia,1,FALSE,54.205758,44.319669,,
Ульяновская область,73,ulianovskaia-oblast,1,FALSE,53.891057,47.606533,,
Тульская область,70,tulskaia-oblast,1,FALSE,53.888064,37.575693,,
Амурская область,10,amurskaia-oblast,1,FALSE,53.413341,127.728064,,
Республика Хакасия,95,respublika-khakasiia,1,FALSE,53.386357,89.897078,,
Самарская область,36,samarskaia-oblast,1,TRUE,53.27635,50.463301,,
Пензенская область,56,penzenskaia-oblast,1,TRUE,53.1824,44.634151,,
Брянская область,15,brianskaia-oblast,1,FALSE,52.909192,33.422197,,
Забайкальский край,76,zabaikalskii-krai,1,FALSE,52.847258,116.200424,,
Орловская область,54,orlovskaia-oblast,1,FALSE,52.781455,36.481042,,
Оренбургская область,53,orenburgskaia-oblast,1,FALSE,52.743528,53.498682,,
Тамбовская область,68,tambovskaia-oblast,1,FALSE,52.680864,41.587183,,
Липецкая область,42,lipetskaia-oblast,1,FALSE,52.644554,39.149784,,
Алтайский край,1,altaiskii-krai,1,TRUE,52.129671,82.530013,,
Хабаровский край,8,khabarovskii-krai,1,FALSE,51.695886,136.637034,,
Курская область,38,kurskaia-oblast,1,TRUE,51.680369,36.104872,,
Республика Тыва,93,respublika-tyva,1,FALSE,51.584332,94.793085,,
Саратовская область,63,saratovskaia-oblast,1,FALSE,51.578529,46.797223,,
Воронежская область,20,voronezhskaia-oblast,1,TRUE,50.970898,40.233395,,
Белгородская область,14,belgorodskaia-oblast,1,FALSE,50.872231,37.303198,,
Республика Алтай,84,respublika-altai,1,FALSE,50.73624,87.015454,,
Сахалинская область,64,sakhalinskaia-oblast,1,FALSE,50.150926,142.750797,,
Волгоградская область,18,volgogradskaia-oblast,1,TRUE,49.615821,44.151406,,
Еврейская автономная область,99,evreiskaia-avtonomnaia-oblast,1,FALSE,48.522902,132.257612,,
Ростовская область,60,rostovskaia-oblast,1,FALSE,47.728732,41.268128,,
Астраханская область,12,astrakhanskaia-oblast,1,FALSE,46.851463,47.466189,,
Республика Калмыкия,85,respublika-kalmykiia,1,FALSE,46.414024,45.325701,,
Республика Крым,35,respublika-krym,1,FALSE,45.389194,33.993751,,
Краснодарский край,3,krasnodarskii-krai,1,TRUE,45.272365,38.951409,,
Приморский край,5,primorskii-krai,1,FALSE,45.04198,134.709375,,
Республика Адыгея (Адыгея),79,respublika-adygeia-adygeia,1,FALSE,45.020131,38.932598,,
Ставропольский край,7,stavropolskii-krai,1,FALSE,44.953551,43.344521,,
Севастополь,67,sevastopol,1,FALSE,44.616687,33.525432,,
Карачаево-Черкесская Республика,91,karachaevo-cherkesskaia-respublika,1,FALSE,43.770947,41.753928,,
Кабардино-Балкарская Республика,83,kabardino-balkarskaia-respublika,1,FALSE,43.494396,43.408274,,
Чеченская Республика,96,chechenskaia-respublika,1,FALSE,43.305784,45.747667,,
Республика Ингушетия,26,respublika-ingushetiia,1,FALSE,43.10359,45.054581,,
Республика Северная Осетия-Алания,90,respublika-severnaia-osetiia-alaniia,1,FALSE,43.092669,44.262033,,
Республика Дагестан,82,respublika-dagestan,1,FALSE,42.259793,47.095742,,
Анабарский Национальный район,98210,anabarskii-natsionalnyi-raion,2,,72.825638,114.690104,Республика Саха (Якутия),98
Таймырский район,4100,taimyrskii-raion,2,,72.578373,96.471354,Красноярский край,4
Новая Земля,11243,novaia-zemlia,2,,71.148278,55.742017,Архангельская область,11
Булунский район,98212,bulunskii-raion,2,,71.093296,125.973223,Республика Саха (Якутия),98
Аллаиховский район,98206,allaikhovskii-raion,2,,70.815541,146.896917,Республика Саха (Якутия),98
Усть-Янский район,98256,ust-ianskii-raion,2,,70.689407,134.936891,Республика Саха (Якутия),98
Ямальский район,71168,iamalskii-raion,2,,70.003712,70.328852,Ямало-Ненецкий автономный округ,71140
Нижнеколымский район,98237,nizhnekolymskii-raion,2,,69.702341,157.398959,Республика Саха (Якутия),98
Заозерск,47533,zaozersk,2,,69.400373,32.450139,Мурманская область,47
Норильск,44290,norilsk,2,,69.349033,88.201176,Красноярский край,4
пос. Видяево,47555,pos-vidiaevo,2,,69.31849,32.79255,Мурманская область,47
Печенгский район,47215,pechengskii-raion,2,,69.254518,30.597903,Мурманская область,47
Александровск,475551,aleksandrovsk,2,,69.198909,33.451033,Мурманская область,47
Североморск,47530,severomorsk,2,,69.076631,33.417814,Мурманская область,47
Мурманск,47401,murmansk,2,,68.970682,33.074981,Мурманская область,47
Чаунский район,77230,chaunskii-raion,2,,68.888635,172.428771,Чукотский автономный округ,77
Оленёкский  район,98242,oleniokskii-raion,2,,68.765649,114.252849,Республика Саха (Якутия),98
Кольский район,47205,kolskii-raion,2,,68.629965,31.75876,Мурманская область,47
Абыйский район,98201,abyiskii-raion,2,,68.314809,144.84618,Республика Саха (Якутия),98
Иультинский район,77215,iultinskii-raion,2,,68.087557,177.339546,Чукотский автономный округ,77
Островной,47531,ostrovnoi,2,,68.05439,39.514105,Мурманская область,47
Полярнозорский,47419,poliarnozorskii,2,,67.926546,34.157046,Мурманская область,47
Апатитский,47405,apatitskii,2,,67.926546,34.157046,Мурманская область,47
Кировский,47412,kirovskii,2,,67.926546,34.157046,Мурманская область,47
Оленегорский,47417,olenegorskii,2,,67.926546,34.157046,Мурманская область,47
Мончегорский,47415,monchegorskii,2,,67.926546,34.157046,Мурманская область,47
Эвено-Бытантайский Национальный район,98259,eveno-bytantaiskii-natsionalnyi-raion,2,,67.912864,129.690496,Республика Саха (Якутия),98
Тазовский район,71163,tazovskii-raion,2,,67.875308,80.351481,Ямало-Ненецкий автономный округ,71140
Среднеколымский район,98246,srednekolymskii-raion,2,,67.806491,153.52616,Республика Саха (Якутия),98
Верхоянский район,98216,verkhoianskii-raion,2,,67.784182,135.255685,Республика Саха (Якутия),98
Ненецкий АО,11100,nenetskii-ao,2,,67.714212,54.365062,Ненецкий автономный округ,10011
Ловозерский район,47210,lovozerskii-raion,2,,67.66192,37.699993,Мурманская область,47
Ковдорский район,47203,kovdorskii-raion,2,,67.552784,31.098983,Мурманская область,47
Воркута,87410,vorkuta,2,,67.49741,64.061091,Республика Коми,87
Билибинский район,77209,bilibinskii-raion,2,,67.200958,163.785334,Чукотский автономный округ,77
Жиганский район,98222,zhiganskii-raion,2,,67.141987,123.127899,Республика Саха (Якутия),98
Кандалакшский район,47408,kandalakshskii-raion,2,,66.954784,31.278934,Мурманская область,47
Приуральский район,71158,priuralskii-raion,2,,66.870715,67.647228,Ямало-Ненецкий автономный округ,71140
Момский Национальный район,98233,momskii-natsionalnyi-raion,2,,66.662208,141.251598,Республика Саха (Якутия),98
Лабытнанги,71173,labytnangi,2,,66.659365,66.388266,Ямало-Ненецкий автономный округ,71140
Терский район,47220,terskii-raion,2,,66.578113,36.625284,Мурманская область,47
Салехард,71171,salekhard,2,,66.530715,66.613806,Ямало-Ненецкий автономный округ,71140
Чукотский район,77233,chukotskii-raion,2,,66.244592,-172.682662,Чукотский автономный округ,77
Новый Уренгой,71176,novyi-urengoi,2,,66.083963,76.680974,Ямало-Ненецкий автономный округ,71140
Инта,87415,inta,2,,66.03682,60.115367,Республика Коми,87
Усинск,87423,usinsk,2,,65.994144,57.55701,Республика Коми,87
Лоухский район,86221,loukhskii-raion,2,,65.900959,32.023817,Республика Карелия,86
Верхнеколымский район,98215,verkhnekolymskii-raion,2,,65.838468,150.318941,Республика Саха (Якутия),98
Усть-Цилемский район,87252,ust-tsilemskii-raion,2,,65.803648,51.534309,Республика Коми,87
Мезенский район,11242,mezenskii-raion,2,,65.787922,44.461666,Архангельская область,11
Шурышкарский район,71166,shuryshkarskii-raion,2,,65.325726,65.296292,Ямало-Ненецкий автономный округ,71140
Кемский район,86212,kemskii-raion,2,,65.279283,34.122299,Республика Карелия,86
Ижемский район,87204,izhemskii-raion,2,,65.220423,53.882801,Республика Коми,87
Провиденский район,77220,providenskii-raion,2,,65.123776,-174.489138,Чукотский автономный округ,77
Надымский район,71156,nadymskii-raion,2,,65.108938,72.967231,Ямало-Ненецкий автономный округ,71140
Калевальский район,86209,kalevalskii-raion,2,,65.062756,31.447081,Республика Карелия,86
Печорский район,87420,pechorskii-raion,2,,65.032137,57.168587,Республика Коми,87
Приморский район,11252,primorskii-raion,2,,64.892408,40.494077,Архангельская область,11
Анадырский район,77203,anadyrskii-raion,2,,64.861088,173.33925,Чукотский автономный округ,77
Лешуконский район,11238,leshukonskii-raion,2,,64.857237,47.367356,Архангельская область,11
Пуровский район,71160,purovskii-raion,2,,64.751575,77.354064,Ямало-Ненецкий автономный округ,71140
Анадырь,77401,anadyr,2,,64.734816,177.514745,Чукотский автономный округ,77
Эвенкийский район,4130,evenkiiskii-raion,2,,64.690149,98.93192,Красноярский край,4
Кобяйский район,98224,kobiaiskii-raion,2,,64.676788,128.369317,Республика Саха (Якутия),98
Костомукшка,86406,kostomukshka,2,,64.588014,30.598361,Республика Карелия,86
Северодвинск,11430,severodvinsk,2,,64.562501,39.818175,Архангельская область,11
Туруханский район,4254,turukhanskii-raion,2,,64.540839,87.450077,Красноярский край,4
Архангельск,11401,arkhangelsk,2,,64.539393,40.516939,Архангельская область,11
Красноселькупский район,71153,krasnoselkupskii-raion,2,,64.512058,82.500988,Ямало-Ненецкий автономный округ,71140
Беломорский район,86204,belomorskii-raion,2,,64.451565,34.737448,Республика Карелия,86
Губкинский,71172,gubkinskii,2,,64.432625,76.500494,Ямало-Ненецкий автономный округ,71140
Новодвинск,11415,novodvinsk,2,,64.413695,40.820749,Архангельская область,11
Вилюйский район,98218,viliuiskii-raion,2,,64.363213,122.154574,Республика Саха (Якутия),98
Среднекамский район,44210,srednekamskii-raion,2,,64.350757,154.599288,Магаданская область,44
Нюрбинский район,98226,niurbinskii-raion,2,,64.207416,117.325878,Республика Саха (Якутия),98
Мирнинский район,98231,mirninskii-raion,2,,64.098142,110.761852,Республика Саха (Якутия),98
Пинежский район,11248,pinezhskii-raion,2,,64.097815,44.368358,Архангельская область,11
Томпонский район,98250,tomponskii-raion,2,,64.06566,136.727009,Республика Саха (Якутия),98
Вуктыльский район,87412,vuktylskii-raion,2,,63.928838,58.834486,Республика Коми,87
Холмогорский район,11256,kholmogorskii-raion,2,,63.837051,41.994578,Архангельская область,11
Муравленко,71175,muravlenko,2,,63.795285,74.494448,Ямало-Ненецкий автономный округ,71140
Муезёрский район,86227,mueziorskii-raion,2,,63.788921,31.661131,Республика Карелия,86
Сосногорский район,87422,sosnogorskii-raion,2,,63.69962,54.950907,Республика Коми,87
Оймяконский район,98239,oimiakonskii-raion,2,,63.695064,142.713633,Республика Саха (Якутия),98
Верхневилюйский район,98214,verkhneviliuiskii-raion,2,,63.653626,120.395278,Республика Саха (Якутия),98
Сегежский район,86245,segezhskii-raion,2,,63.651637,34.510956,Республика Карелия,86
Онежский район,11246,onezhskii-raion,2,,63.629132,37.900218,Архангельская область,11
Удорский район,87240,udorskii-raion,2,,63.618502,48.536999,Республика Коми,87
Белоярский район,71111,beloiarskii-raion,2,,63.618103,68.24715,Ханты-Мансийский автономный округ - Югра,71100
Ухта,87425,ukhta,2,,63.562626,53.684022,Республика Коми,87
Березовский район,71112,berezovskii-raion,2,,63.534218,62.091229,Ханты-Мансийский автономный округ - Югра,71100
Княжпогостский район,87208,kniazhpogostskii-raion,2,,63.331701,51.336778,Республика Коми,87
Сусуманский район,44213,susumanskii-raion,2,,63.238274,146.486144,Магаданская область,44
Ноябрьск,71178,noiabrsk,2,,63.201789,75.450965,Ямало-Ненецкий автономный округ,71140
Северо-Эвенский район,44207,severo-evenskii-raion,2,,63.147706,160.279075,Магаданская область,44
Усть-Алданский район,98252,ust-aldanskii-raion,2,,63.053591,131.299244,Республика Саха (Якутия),98
Медвежьегорский район,86224,medvezhegorskii-raion,2,,62.873679,34.615942,Республика Карелия,86
Намский район,98235,namskii-raion,2,,62.867399,129.157705,Республика Саха (Якутия),98
Пенжинский район,30129,penzhinskii-raion,2,,62.86609,165.841847,Камчатский край,30
Виноградовский район,11214,vinogradovskii-raion,2,,62.778798,43.516665,Архангельская область,11
ЗАТО Мирный,11525,zato-mirnyi,2,,62.764516,40.336054,Архангельская область,11
Омсуканский район,44204,omsukanskii-raion,2,,62.742226,156.089638,Магаданская область,44
Плесецкий район,11250,plesetskii-raion,2,,62.739639,39.621265,Архангельская область,11
Таттинскийрайон,98204,tattinskiiraion,2,,62.659842,133.26121,Республика Саха (Якутия),98
Ягоднинский район,44222,iagodninskii-raion,2,,62.586059,150.274897,Магаданская область,44
Верхнетоемский район,11208,verkhnetoemskii-raion,2,,62.480752,45.638504,Архангельская область,11
Сунтарский район,98248,suntarskii-raion,2,,62.473065,116.774842,Республика Саха (Якутия),98
Троицко-Печорский район,87236,troitsko-pechorskii-raion,2,,62.439552,57.491424,Республика Коми,87
Кондопожский район,86215,kondopozhskii-raion,2,,62.40508,33.944011,Республика Карелия,86
Суоярвский район,86250,suoiarvskii-raion,2,,62.373284,32.114358,Республика Карелия,86
Октябрьский район,71121,oktiabrskii-raion,2,,62.297992,66.069553,Ханты-Мансийский автономный округ - Югра,71100
Когалым,71183,kogalym,2,,62.264069,74.482761,Ханты-Мансийский автономный округ - Югра,71100
Горный район,98220,gornyi-raion,2,,62.254475,125.639552,Республика Саха (Якутия),98
Усть-Вымский район,87244,ust-vymskii-raion,2,,62.183742,49.788819,Республика Коми,87
Нягань,71139,niagan,2,,62.145759,65.433654,Ханты-Мансийский автономный округ - Югра,71100
Радужный,71137,raduzhnyi,2,,62.134265,77.458439,Ханты-Мансийский автономный округ - Югра,71100
Шенкурский район,11258,shenkurskii-raion,2,,62.123213,42.59176,Архангельская область,11
Ленский район,11235,lenskii-raion,2,,62.093989,48.668449,Архангельская область,11
Пудожский район,86242,pudozhskii-raion,2,,62.058444,36.655072,Республика Карелия,86
Якутск,98401,iakutsk,2,,62.028103,129.732663,Республика Саха (Якутия),98
Чурапчинский район,98258,churapchinskii-raion,2,,61.982792,132.063073,Республика Саха (Якутия),98
Няндомский район,11244,niandomskii-raion,2,,61.929722,40.577009,Архангельская область,11
Корткеросский район,87216,kortkerosskii-raion,2,,61.924353,52.232165,Республика Коми,87
Сортавальский район,86206,sortavalskii-raion,2,,61.816498,30.497885,Республика Карелия,86
Красноборский район,11230,krasnoborskii-raion,2,,61.8066,46.472203,Архангельская область,11
Петрозаводск,86401,petrozavodsk,2,,61.789036,34.359688,Республика Карелия,86
Мегино-Кангаласский район,98229,megino-kangalasskii-raion,2,,61.749365,130.571267,Республика Саха (Якутия),98
Покачи,71184,pokachi,2,,61.742253,75.59412,Ханты-Мансийский автономный округ - Югра,71100
Усть-Куломский район,87248,ust-kulomskii-raion,2,,61.714802,54.44149,Республика Коми,87
Пряжинский район,86239,priazhinskii-raion,2,,61.696533,33.154329,Республика Карелия,86
Сыктывкар,87401,syktyvkar,2,,61.668831,50.836461,Республика Коми,87
Нижневартовский район,71119,nizhnevartovskii-raion,2,,61.586562,79.692702,Ханты-Мансийский автономный округ - Югра,71100
Прионежский район,86236,prionezhskii-raion,2,,61.559841,34.737026,Республика Карелия,86
Сыктывдинский район,87228,syktyvdinskii-raion,2,,61.503133,50.469877,Республика Коми,87
Тенькинский район,44216,tenkinskii-raion,2,,61.480628,148.6558,Магаданская область,44
Питкярантский район,86233,pitkiarantskii-raion,2,,61.469569,31.813045,Республика Карелия,86
Устьянский район,11254,ustianskii-raion,2,,61.458149,44.073926,Архангельская область,11
Каргопольский район,11218,kargopolskii-raion,2,,61.443367,38.772402,Архангельская область,11
Лахденпохский район,86218,lakhdenpokhskii-raion,2,,61.420921,29.931632,Республика Карелия,86
Хангаласский район,98244,khangalasskii-raion,2,,61.374775,128.849206,Республика Саха (Якутия),98
Ханты-Мансийский район,71129,khanty-mansiiskii-raion,2,,61.3161,68.710169,Ханты-Мансийский автономный округ - Югра,71100
Коряжма,11408,koriazhma,2,,61.315335,47.159855,Архангельская область,11
Югорск,71187,iugorsk,2,,61.314917,63.331964,Ханты-Мансийский автономный округ - Югра,71100
Вельский район,11205,velskii-raion,2,,61.311379,42.092611,Архангельская область,11
Сургут,71136,surgut,2,,61.254035,73.396221,Ханты-Мансийский автономный округ - Югра,71100
Лангепас,71132,langepas,2,,61.253701,75.180725,Ханты-Мансийский автономный округ - Югра,71100
Котлас,11410,kotlas,2,,61.25297,46.633217,Архангельская область,11
Вилегодский район,11211,vilegodskii-raion,2,,61.226953,48.323918,Архангельская область,11
Котласский район,11227,kotlasskii-raion,2,,61.212997,45.962679,Архангельская область,11
Хасынский район,44219,khasynskii-raion,2,,61.158458,151.926629,Магаданская область,44
Олюторский район,30127,oliutorskii-raion,2,,61.12542,169.583744,Камчатский край,30
Нефтеюганск,71134,nefteiugansk,2,,61.088212,72.616331,Ханты-Мансийский автономный округ - Югра,71100
Олонецкий район,86230,olonetskii-raion,2,,61.076979,32.838724,Республика Карелия,86
Сысольский район,87232,sysolskii-raion,2,,61.05534,49.978157,Республика Коми,87
Мегион,71133,megion,2,,61.03289,76.102612,Ханты-Мансийский автономный округ - Югра,71100
Коношский район,11222,konoshskii-raion,2,,61.009442,40.209293,Архангельская область,11
Ивдельский,65428,ivdelskii,2,,60.987819,60.688025,Свердловская область,65
Чердынский район,86007,cherdynskii-raion,2,,60.966918,56.710913,Пермский край,57
Вытегорский район,19222,vytegorskii-raion,2,,60.9618,36.795901,Вологодская область,19
Нижневартовск,71135,nizhnevartovsk,2,,60.939716,76.569628,Ханты-Мансийский автономный округ - Югра,71100
Советский район,71124,sovetskii-raion,2,,60.892832,63.364762,Ханты-Мансийский автономный округ - Югра,71100
Подпорожский район,41236,podporozhskii-raion,2,,60.853438,34.704183,Ленинградская область,41
Катангский район,25216,katangskii-raion,2,,60.831752,107.433666,Иркутская область,25
Пыть-Ях,71185,pyt-iakh,2,,60.758589,72.836526,Ханты-Мансийский автономный округ - Югра,71100
Приозерский район,41239,priozerskii-raion,2,,60.753284,30.052482,Ленинградская область,41
Выборгский район,41215,vyborgskii-raion,2,,60.739939,29.158694,Ленинградская область,41
Стрежевой,80417,strezhevoi,2,,60.732862,77.604002,Томская область,69
Великоустюгский район,19214,velikoustiugskii-raion,2,,60.675636,46.049905,Вологодская область,19
Лузский район,33222,luzskii-raion,2,,60.650292,47.850578,Кировская область,33
Усть-Майский район,98254,ust-maiskii-raion,2,,60.624853,135.829493,Республика Саха (Якутия),98
Амгинский район,98208,amginskii-raion,2,,60.618334,131.026884,Республика Саха (Якутия),98
Верховажский район,19216,verkhovazhskii-raion,2,,60.613036,42.099088,Вологодская область,19
Тарногский район,19242,tarnogskii-raion,2,,60.585495,43.570438,Вологодская область,19
Людейнопольский район,41227,liudeinopolskii-raion,2,,60.530755,33.726879,Ленинградская область,41
Гайнский район,89003,gainskii-raion,2,,60.5299,53.537156,Пермский край,57
Койгородский район,87212,koigorodskii-raion,2,,60.502461,51.155543,Республика Коми,87
Вожегодский район,19218,vozhegodskii-raion,2,,60.489797,40.197498,Вологодская область,19
Нюксенский район,19236,niuksenskii-raion,2,,60.488325,44.572662,Вологодская область,19
Ленский район,98227,lenskii-raion,2,,60.447997,113.223039,Республика Саха (Якутия),98
Нефтеюганский район,71118,nefteiuganskii-raion,2,,60.390306,71.885013,Ханты-Мансийский автономный округ - Югра,71100
Вашкинский район,19212,vashkinskii-raion,2,,60.356033,37.80241,Вологодская область,19
Североуральский,65490,severouralskii,2,,60.346953,59.739359,Свердловская область,65
Охотский район,8234,okhotskii-raion,2,,60.288441,142.106408,Хабаровский край,8
Красновишерский район,85956,krasnovisherskii-raion,2,,60.266246,57.988857,Пермский край,57
Подосиновский район,33232,podosinovskii-raion,2,,60.233701,47.335592,Кировская область,33
Всеволожский район,41212,vsevolozhskii-raion,2,,60.217776,30.676991,Ленинградская область,41
Прилузский район,87224,priluzskii-raion,2,,60.212658,49.287721,Республика Коми,87
Александровский,69204,aleksandrovskii,2,,60.159971,78.762523,Томская область,69
МО пос. Уральский,65570,mo-pos-uralskii,2,,60.148073,59.826289,Свердловская область,65
Кирилловский район,19228,kirillovskii-raion,2,,60.131456,38.622446,Вологодская область,19
Урай,71138,urai,2,,60.129632,64.803944,Ханты-Мансийский автономный округ - Югра,71100
Курортный район,40281,kurortnyi-raion,2,,60.09307,30.007351,Санкт-Петербург,40
Выборгский район,40265,vyborgskii-raion,2,,60.086515,30.229019,Санкт-Петербург,40
Сямженский район,19240,siamzhenskii-raion,2,,60.04459,41.30689,Вологодская область,19
Северо-Енисейский район,4249,severo-eniseiskii-raion,2,,60.024572,93.367711,Красноярский край,4
Приморский район,40270,primorskii-raion,2,,60.017715,30.185145,Санкт-Петербург,40
Кронштадтский район,40280,kronshtadtskii-raion,2,,60.013056,29.714374,Санкт-Петербург,40
Калининский район,40273,kalininskii-raion,2,,60.007339,30.428337,Санкт-Петербург,40
Волховский район,41209,volkhovskii-raion,2,,60.002539,32.61693,Ленинградская область,41
Харовский район,19252,kharovskii-raion,2,,60.002108,40.19059,Вологодская область,19
Кичменгско-Городецкий район,19230,kichmengsko-gorodetskii-raion,2,,59.985674,45.963838,Вологодская область,19
Волчанский,654455,volchanskii,2,,59.970357,60.05553,Свердловская область,65
Белозерский район,19210,belozerskii-raion,2,,59.967255,37.261031,Вологодская область,19
Петроградский район,40288,petrogradskii-raion,2,,59.966381,30.28458,Санкт-Петербург,40
Красногвардейский район,40278,krasnogvardeiskii-raion,2,,59.964458,30.460398,Санкт-Петербург,40
Ольский район,44201,olskii-raion,2,,59.951799,153.399399,Магаданская область,44
Василеостровский район,40263,vasileostrovskii-raion,2,,59.941425,30.248045,Санкт-Петербург,40
Кондинский район,71116,kondinskii-raion,2,,59.933681,66.179147,Ханты-Мансийский автономный округ - Югра,71100
Центральный район,40298,tsentralnyi-raion,2,,59.930908,30.361817,Санкт-Петербург,40
Адмиралтейский район,40262,admiralteiskii-raion,2,,59.916825,30.297542,Санкт-Петербург,40
Косинский район,89005,kosinskii-raion,2,,59.912698,55.034091,Пермский край,57
Усть-Кубинский район,19248,ust-kubinskii-raion,2,,59.908141,39.445689,Вологодская область,19
Невский район,40285,nevskii-raion,2,,59.881932,30.464602,Санкт-Петербург,40
Кировский район,40276,kirovskii-raion,2,,59.876391,30.257603,Санкт-Петербург,40
Тотемский район,19246,totemskii-raion,2,,59.868921,42.593017,Вологодская область,19
Петродворцовый район,40290,petrodvortsovyi-raion,2,,59.868464,29.949239,Санкт-Петербург,40
Кировский район,41225,kirovskii-raion,2,,59.862931,31.465316,Ленинградская область,41
Фрунзенский район,40296,frunzenskii-raion,2,,59.854111,30.413919,Санкт-Петербург,40
Московский район,40284,moskovskii-raion,2,,59.852176,30.323073,Санкт-Петербург,40
Бабаевский район,19205,babaevskii-raion,2,,59.83763,35.94658,Вологодская область,19
Сосновоборгский,41454,sosnovoborgskii,2,,59.836206,29.037386,Ленинградская область,41
Олекминский район,98241,olekminskii-raion,2,,59.832548,121.377406,Республика Саха (Якутия),98
Ломоносовский район,41230,lomonosovskii-raion,2,,59.827415,29.398598,Ленинградская область,41
Серовский,65492,serovskii,2,,59.815477,60.985636,Свердловская область,65
Серовский р-н,65238,serovskii-r-n,2,,59.815477,60.985636,Свердловская область,65
Красносельский район,40279,krasnoselskii-raion,2,,59.790806,30.121769,Санкт-Петербург,40
Колпинский район,40277,kolpinskii-raion,2,,59.775082,30.595792,Санкт-Петербург,40
Карпинск,65445,karpinsk,2,,59.766534,60.001227,Свердловская область,65
Краснотурьинск,65456,krasnoturinsk,2,,59.763761,60.193493,Свердловская область,65
Верхнекамский район,33207,verkhnekamskii-raion,2,,59.754198,52.570192,Кировская область,33
Кочевский район,89004,kochevskii-raion,2,,59.736031,54.236917,Пермский край,57
Тихвинский район,41245,tikhvinskii-raion,2,,59.731532,33.298544,Ленинградская область,41
Гаринский,65215,garinskii,2,,59.729182,62.733039,Свердловская область,65
Соликамский район,85992,solikamskii-raion,2,,59.723085,57.276061,Пермский край,57
Опаринскийрайон,33229,oparinskiiraion,2,,59.716161,47.810765,Кировская область,33
Сургутский район,71126,surgutskii-raion,2,,59.714255,74.687819,Ханты-Мансийский автономный округ - Югра,71100
Пушкинский район,40294,pushkinskii-raion,2,,59.696674,30.421276,Санкт-Петербург,40
Бабушкинский район,19208,babushkinskii-raion,2,,59.677172,43.793077,Вологодская область,19
Енисейский район,4215,eniseiskii-raion,2,,59.641235,89.054162,Красноярский край,4
Сокольский район,19238,sokolskii-raion,2,,59.580992,40.724971,Вологодская область,19
Магадан,44401,magadan,2,,59.568164,150.808541,Магаданская область,44
Нагорский район,33225,nagorskii-raion,2,,59.553156,50.78099,Кировская область,33
Никольский район,19234,nikolskii-raion,2,,59.497628,45.248518,Вологодская область,19
Бокситогорский район,41203,boksitogorskii-raion,2,,59.488245,34.590591,Ленинградская область,41
Гатчинский район,41218,gatchinskii-raion,2,,59.468288,30.189834,Ленинградская область,41
Киришский район,41224,kirishskii-raion,2,,59.437722,32.382811,Ленинградская область,41
Александровский район,86016,aleksandrovskii-raion,2,,59.418316,57.836323,Пермский край,57
Кингисепский район,41221,kingisepskii-raion,2,,59.410564,28.704183,Ленинградская область,41
Кадуйский район,19226,kaduiskii-raion,2,,59.405746,36.911002,Вологодская область,19
Березниковский район,86002,bereznikovskii-raion,2,,59.4057,56.804868,Пермский край,57
Усольский район,86001,usolskii-raion,2,,59.381362,56.281177,Пермский край,57
Тосненский район,41248,tosnenskii-raion,2,,59.372034,31.017569,Ленинградская область,41
Волосовский район,41206,volosovskii-raion,2,,59.368573,29.477848,Ленинградская область,41
Юрлинский район,89006,iurlinskii-raion,2,,59.355131,54.232524,Пермский край,57
Мурашинский район,33224,murashinskii-raion,2,,59.34196,48.724711,Кировская область,33
Вологодский район,31922,vologodskii-raion,2,,59.318586,39.476672,Вологодская область,19
Междуреченский район,19232,mezhdurechenskii-raion,2,,59.311041,41.267418,Вологодская область,19
Шекснинский район,19258,sheksninskii-raion,2,,59.251843,38.637537,Вологодская область,19
Вологда,19401,vologda,2,,59.220496,39.891523,Вологодская область,19
Каргасокский,69224,kargasokskii,2,,59.218645,79.924144,Томская область,69
Новолялинский,65229,novolialinskii,2,,59.199408,59.976236,Свердловская область,65
Верхнекетский,69216,verkhneketskii,2,,59.182123,86.311938,Томская область,69
Вохомский район,34206,vokhomskii-raion,2,,59.163792,46.635939,Костромская область,34
Сланцевский район,41242,slantsevskii-raion,2,,59.155184,28.314251,Ленинградская область,41
Череповец,19430,cherepovets,2,,59.127415,37.906929,Вологодская область,19
Чудовский район,49250,chudovskii-raion,2,,59.120326,31.808679,Новгородская область,49
Губахинский район,86025,gubakhinskii-raion,2,,59.117698,56.225679,Пермский край,57
Павинский район,34232,pavinskii-raion,2,,59.108828,46.142809,Костромская область,34
пос. Палана,30132657,pos-palana,2,,59.0843,159.953705,Камчатский край,30
Чагодощенский район,19254,chagodoshchenskii-raion,2,,59.068965,35.502561,Вологодская область,19
Юсьвинский район,89008,iusvinskii-raion,2,,59.053836,55.511132,Пермский край,57
Солигаличский район,34240,soligalichskii-raion,2,,59.052572,42.198855,Костромская область,34
Любытинский район,49216,liubytinskii-raion,2,,59.034954,33.333713,Новгородская область,49
Кизеловский район,86031,kizelovskii-raion,2,,59.032866,58.055323,Пермский край,57
Даровской район,33212,darovskoi-raion,2,,59.016188,47.876279,Кировская область,33
Череповецкий район,19256,cherepovetskii-raion,2,,59.006485,37.960307,Вологодская область,19
Октябрьский район,34228,oktiabrskii-raion,2,,59.004581,47.130031,Костромская область,34
Юрьянский район,33249,iurianskii-raion,2,,59.000567,49.478308,Кировская область,33
Белохолуницкий район,33205,belokholunitskii-raion,2,,58.984772,51.208032,Кировская область,33
Кудымкарский район,89007,kudymkarskii-raion,2,,58.959032,54.164082,Пермский край,57
Кологривский район,34212,kologrivskii-raion,2,,58.947007,44.185614,Костромская область,34
Уватский район,712481,uvatskii-raion,2,,58.909246,71.42945,Тюменская область,71
Гремячинский район,86022,gremiachinskii-raion,2,,58.906597,58.24511,Пермский край,57
Хвойнинский район,49245,khvoininskii-raion,2,,58.905886,34.481895,Новгородская область,49
Пыщугский район,34238,pyshchugskii-raion,2,,58.905398,45.623933,Костромская область,34
Чухломский район,34246,chukhlomskii-raion,2,,58.897709,42.998607,Костромская область,34
Устюженский район,19250,ustiuzhenskii-raion,2,,58.887481,36.390051,Вологодская область,19
Афанасьевский район,33203,afanasevskii-raion,2,,58.88623,53.262793,Кировская область,33
Грязовецкий район,19224,griazovetskii-raion,2,,58.881263,40.64282,Вологодская область,19
Межевской район,34222,mezhevskoi-raion,2,,58.8684,45.019349,Костромская область,34
Слободской район,33235,slobodskoi-raion,2,,58.847476,50.156248,Кировская область,33
Таборинский р-н,65245,taborinskii-r-n,2,,58.826389,64.43285,Свердловская область,65
Лужский район,41233,luzhskii-raion,2,,58.826217,29.654618,Ленинградская область,41
Кежемский район,4224,kezhemskii-raion,2,,58.817868,100.708617,Красноярский край,4
Маловишерский район,49220,malovisherskii-raion,2,,58.81592,32.40746,Новгородская область,49
Омутнинский район,33228,omutninskii-raion,2,,58.809992,52.307183,Кировская область,33
Алданский район,98203,aldanskii-raion,2,,58.731975,127.882403,Республика Саха (Якутия),98
Верхотурский,65212,verkhoturskii,2,,58.707503,61.134712,Свердловская область,65
Качканарский,654481,kachkanarskii,2,,58.707438,59.468283,Свердловская область,65
Орловский район,33245,orlovskii-raion,2,,58.697564,48.783955,Кировская область,33
Богучанский район,4209,boguchanskii-raion,2,,58.678772,97.500635,Красноярский край,4
Ильинский район,85947,ilinskii-raion,2,,58.645747,55.764251,Пермский край,57
Лесной,655421,lesnoi,2,,58.635513,59.79863,Свердловская область,65
Нижняя Тура,654781,nizhniaia-tura,2,,58.631035,59.85216,Свердловская область,65
Добрянский район,86028,dobrianskii-raion,2,,58.624302,56.660716,Пермский край,57
Пестовский район,49232,pestovskii-raion,2,,58.611879,35.649974,Новгородская область,49
Буйский район,34204,buiskii-raion,2,,58.604716,41.505131,Костромская область,34
Киров,33401,kirov,2,,58.603581,49.667978,Кировская область,33
Батецкий район,49203,batetskii-raion,2,,58.599221,30.485542,Новгородская область,49
Гдовский район,58208,gdovskii-raion,2,,58.596027,27.970717,Псковская область,58
Ирбитское МО,65218,irbitskoe-mo,2,,58.586755,61.530761,Свердловская область,65
Горнозаводский район,85941,gornozavodskii-raion,2,,58.581187,58.673364,Пермский край,57
Парфеньевский район,34234,parfenevskii-raion,2,,58.580296,43.503154,Костромская область,34
Пешехонский район,78234,peshekhonskii-raion,2,,58.576613,39.069924,Ярославская область,78
Новгородский район,49225,novgorodskii-raion,2,,58.573671,31.45106,Новгородская область,49
Весьегонский район,28210,vesegonskii-raion,2,,58.562102,37.088051,Тверская область,28
Плюсский район,58243,pliusskii-raion,2,,58.555013,29.121163,Псковская область,58
Мотыгинский район,4235,motyginskii-raion,2,,58.551356,94.556577,Красноярский край,4
Первомайский район,78229,pervomaiskii-raion,2,,58.54132,39.907881,Ярославская область,78
Великий Новгород,49401,velikii-novgorod,2,,58.52281,31.269915,Новгородская область,49
Бодайбинский район,25202,bodaibinskii-raion,2,,58.521767,115.852713,Иркутская область,25
Колпашевский,69232,kolpashevskii,2,,58.482989,82.829188,Томская область,69
Мошенской район,49224,moshenskoi-raion,2,,58.480783,34.806753,Новгородская область,49
Сивинский район,85989,sivinskii-raion,2,,58.476939,54.207237,Пермский край,57
Карагайский район,85950,karagaiskii-raion,2,,58.473602,55.020868,Пермский край,57
Енисейск,44120,eniseisk,2,,58.448619,92.165163,Красноярский край,4
Окуловский район,49228,okulovskii-raion,2,,58.426767,33.176095,Новгородская область,49
Боровичский район,49206,borovichskii-raion,2,,58.420626,34.036474,Новгородская область,49
Галичский район,34208,galichskii-raion,2,,58.406215,41.958447,Костромская область,34
Поназыревский район,34236,ponazyrevskii-raion,2,,58.389672,46.215411,Костромская область,34
Сандовский район,28249,sandovskii-raion,2,,58.385426,36.371582,Тверская область,28
Брейтовский район,78209,breitovskii-raion,2,,58.385185,37.946823,Ярославская область,78
Нейский район,34224,neiskii-raion,2,,58.379741,43.978013,Костромская область,34
Верхняя Тура,6547051,verkhniaia-tura,2,,58.359814,59.820153,Свердловская область,65
Шабалинский район,33247,shabalinskii-raion,2,,58.359554,46.953422,Кировская область,33
Зуевский район,33214,zuevskii-raion,2,,58.354067,51.080408,Кировская область,33
Красноуральск,654601,krasnouralsk,2,,58.35369,60.055961,Свердловская область,65
Тобольский район,71242,tobolskii-raion,2,,58.345052,67.648432,Тюменская область,71
Оричевский район,33230,orichevskii-raion,2,,58.340749,48.993532,Кировская область,33
Котельничский район,33219,kotelnichskii-raion,2,,58.337178,48.162536,Кировская область,33
Свечинский район,33234,svechinskii-raion,2,,58.335605,47.583365,Кировская область,33
Любимский район,78218,liubimskii-raion,2,,58.325493,40.745201,Ярославская область,78
Чусовской район,86013,chusovskoi-raion,2,,58.31761,57.429557,Пермский край,57
Шимский район,49255,shimskii-raion,2,,58.315284,30.335317,Новгородская область,49
Кирово-Чепецки район,33218,kirovo-chepetski-raion,2,,58.311029,50.482157,Кировская область,33
Антроповский район,34202,antropovskii-raion,2,,58.287458,43.004347,Костромская область,34
Крестецкий район,49214,krestetskii-raion,2,,58.280011,32.421456,Новгородская область,49
Фаленский район,33243,falenskii-raion,2,,58.27791,51.55815,Кировская область,33
Парабельский,69244,parabelskii,2,,58.261623,80.389013,Томская область,69
Шарьинский район,34248,sharinskii-raion,2,,58.260326,45.533958,Костромская область,34
Ярский район,94252,iarskii-raion,2,,58.254417,52.074573,Удмуртская Республика,94
Мантуровский район,34220,manturovskii-raion,2,,58.243406,44.447922,Костромская область,34
Лесной район,28236,lesnoi-raion,2,,58.243216,35.604124,Тверская область,28
Кушвинский,654701,kushvinskii,2,,58.240317,59.482656,Свердловская область,65
Струго-Красненский район,58256,strugo-krasnenskii-raion,2,,58.215974,28.986218,Псковская область,58
Тобольск,71410,tobolsk,2,,58.201698,68.253762,Тюменская область,71
Туринский,65254,turinskii,2,,58.196039,63.565634,Свердловская область,65
Глазовский район,94210,glazovskii-raion,2,,58.192615,52.715575,Удмуртская Республика,94
Краснокамский район,86034,krasnokamskii-raion,2,,58.167987,55.896294,Пермский край,57
Тавдинский,65248,tavdinskii,2,,58.162542,65.352365,Свердловская область,65
Куменский район,33220,kumenskii-raion,2,,58.160372,50.016964,Кировская область,33
Карагинский район,30124,karaginskii-raion,2,,58.157447,161.633123,Камчатский край,30
Сусанинский район,34244,susaninskii-raion,2,,58.148154,41.555571,Костромская область,34
Глазов,94420,glazov,2,,58.14081,52.674235,Удмуртская Республика,94
Верещагинский район,85938,vereshchaginskii-raion,2,,58.131546,54.517865,Пермский край,57
Рыбинский район,78240,rybinskii-raion,2,,58.122934,38.888284,Ярославская область,78
Даниловский район,78215,danilovskii-raion,2,,58.117882,40.116191,Ярославская область,78
Молоковский район,28242,molokovskii-raion,2,,58.114735,36.601641,Тверская область,28
Нытвенский район,85968,nytvenskii-raion,2,,58.113955,55.367645,Пермский край,57
ЗАТО Свободный,655721,zato-svobodnyi,2,,58.113166,60.473255,Свердловская область,65
Мамско-Чуйский район,25224,mamsko-chuiskii-raion,2,,58.106119,112.291342,Иркутская область,25
Краснохолмский район,28232,krasnokholmskii-raion,2,,58.100769,37.213591,Тверская область,28
Нижняя Салда,654771,nizhniaia-salda,2,,58.074855,60.702577,Свердловская область,65
Солецкий район,49238,soletskii-raion,2,,58.073175,30.180627,Новгородская область,49
Рыбинск,78415,rybinsk,2,,58.048454,38.858406,Ярославская область,78
Кезский район,94224,kezskii-raion,2,,58.014383,53.708914,Удмуртская Республика,94
Пермь,86037,perm,2,,58.010374,56.229398,Пермский край,57
Алапаевский р-н,652012,alapaevskii-r-n,2,,57.995962,62.001919,Свердловская область,65
Парфинский район,49230,parfinskii-raion,2,,57.986493,31.866774,Новгородская область,49
Верхошижемский район,33208,verkhoshizhemskii-raion,2,,57.984117,49.134459,Кировская область,33
Киренский район,25220,kirenskii-raion,2,,57.977584,109.212348,Иркутская область,25
Удомельский район,28256,udomelskii-raion,2,,57.960032,34.992021,Тверская область,28
Некоузский район,78223,nekouzskii-raion,2,,57.953853,37.894262,Ярославская область,78
Верхнесалдинский,652111,verkhnesaldinskii,2,,57.94954,60.670615,Свердловская область,65
Бологовский район,28208,bologovskii-raion,2,,57.946937,34.023727,Тверская область,28
Тутаевский район,78243,tutaevskii-raion,2,,57.945475,39.574148,Ярославская область,78
Усть-Илимск,25438,ust-ilimsk,2,,57.943039,102.741523,Иркутская область,25
Костромской район,34214,kostromskoi-raion,2,,57.933909,41.193631,Костромская область,34
Валдайский район,49208,valdaiskii-raion,2,,57.925489,33.130622,Новгородская область,49
Балезинский район,94204,balezinskii-raion,2,,57.924954,52.977551,Удмуртская Республика,94
Юкаменский район,94248,iukamenskii-raion,2,,57.91395,52.182075,Удмуртская Республика,94
Нижний Тагил,654761,nizhnii-tagil,2,,57.907605,59.972211,Свердловская область,65
Лысьвенский район,85965,lysvenskii-raion,2,,57.90618,58.000077,Пермский край,57
Очерский район,85983,ocherskii-raion,2,,57.892143,54.62825,Пермский край,57
Судиславский район,34242,sudislavskii-raion,2,,57.891468,41.708141,Костромская область,34
Сунский район,33237,sunskii-raion,2,,57.878822,50.025615,Кировская область,33
Старорусский район,49239,starorusskii-raion,2,,57.87675,31.401554,Новгородская область,49
Псковский район,58249,pskovskii-raion,2,,57.872165,28.458916,Псковская область,58
Озерный,28553,ozernyi,2,,57.86957,33.692833,Тверская область,28
Волотовский район,49210,volotovskii-raion,2,,57.858478,30.7134,Новгородская область,49
Алапаевск,652011,alapaevsk,2,,57.853038,61.702672,Свердловская область,65
Максатихинский район,28240,maksatikhinskii-raion,2,,57.837499,35.860198,Тверская область,28
Усть-Ишимский район,52257,ust-ishimskii-raion,2,,57.826622,71.082161,Омская область,52
Островский район,34230,ostrovskii-raion,2,,57.822754,42.328149,Костромская область,34
Ветлужский район,22218,vetluzhskii-raion,2,,57.820995,45.549059,Нижегородская область,22
Псков,58401,pskov,2,,57.819365,28.331786,Псковская область,58
Богородский район,33206,bogorodskii-raion,2,,57.81541,50.811506,Кировская область,33
Дновский район,58212,dnovskii-raion,2,,57.812083,30.110837,Псковская область,58
Мышкинский район,78221,myshkinskii-raion,2,,57.809062,38.393196,Ярославская область,78
Пермский район,85986,permskii-raion,2,,57.787124,55.729001,Пермский край,57
Макарьевский район,34218,makarevskii-raion,2,,57.782398,44.043078,Костромская область,34
Сонковский район,28251,sonkovskii-raion,2,,57.774916,37.217831,Тверская область,28
Шахунский район,22258,shakhunskii-raion,2,,57.774177,46.503222,Нижегородская область,22
Арбажский район,33202,arbazhskii-raion,2,,57.769377,48.318807,Кировская область,33
Кострома,34401,kostroma,2,,57.767961,40.926858,Костромская область,34
Тоншаевский район,22253,tonshaevskii-raion,2,,57.767851,47.214257,Нижегородская область,22
Вагайский район,712131,vagaiskii-raion,2,,57.767136,69.574878,Тюменская область,71
Молчановский,69240,molchanovskii,2,,57.740973,84.193432,Томская область,69
Кадыйский район,34210,kadyiskii-raion,2,,57.736659,43.10733,Костромская область,34
Звездный,85987,zvezdnyi,2,,57.735006,56.316355,Пермский край,57
Большесельский район,78203,bolsheselskii-raion,2,,57.726188,38.991671,Ярославская область,78
Бежецкий район,28204,bezhetskii-raion,2,,57.725669,36.555153,Тверская область,28
Первомайский,69248,pervomaiskii,2,,57.724329,86.70805,Томская область,69
Чаинский,69256,chainskii,2,,57.722483,82.382339,Томская область,69
Порховский район,58247,porkhovskii-raion,2,,57.702829,29.399658,Псковская область,58
Демянский район,49212,demianskii-raion,2,,57.69207,32.565447,Новгородская область,49
Красногорский район,94230,krasnogorskii-raion,2,,57.687004,52.4907,Удмуртская Республика,94
Некрасовский район,78226,nekrasovskii-raion,2,,57.677135,40.3656,Ярославская область,78
Печорский район,58240,pechorskii-raion,2,,57.67494,27.691808,Псковская область,58
Унинский район,33240,uninskii-raion,2,,57.66851,51.412722,Кировская область,33
Оханский район,85980,okhanskii-raion,2,,57.657312,55.218075,Пермский край,57
Солнечный,28556,solnechnyi,2,,57.65619,34.455772,Тверская область,28
Тигильский район,30132,tigilskii-raion,2,,57.647531,158.727747,Камчатский край,30
Тевризский район,52255,tevrizskii-raion,2,,57.639419,72.871686,Омская область,52
Березовский район,85932,berezovskii-raion,2,,57.633681,57.546481,Пермский край,57
Дебесский район,94214,debesskii-raion,2,,57.630785,53.803318,Удмуртская Республика,94
Казачинский район,4220,kazachinskii-raion,2,,57.630703,93.3246,Красноярский край,4
Ярославль,78401,iaroslavl,2,,57.626569,39.893787,Ярославская область,78
Нижнетавдинский район,712321,nizhnetavdinskii-raion,2,,57.625918,66.002593,Тюменская область,71
Слободо-Туринский район,65239,slobodo-turinskii-raion,2,,57.605686,64.448058,Свердловская область,65
Ярославский район,78250,iaroslavskii-raion,2,,57.603632,39.532969,Ярославская область,78
Тужинский район,33238,tuzhinskii-raion,2,,57.603169,47.826207,Кировская область,33
Усть-Илимский район,25242,ust-ilimskii-raion,2,,57.592611,101.640018,Иркутская область,25
Нолинский район,33227,nolinskii-raion,2,,57.583619,49.818769,Кировская область,33
Красносельский район,34216,krasnoselskii-raion,2,,57.581732,41.331684,Костромская область,34
Ярковский район,712581,iarkovskii-raion,2,,57.571221,67.176107,Тюменская область,71
Кесовогорский район,28226,kesovogorskii-raion,2,,57.564821,37.286516,Тверская область,28
Кедровый,80418,kedrovyi,2,,57.564285,79.56259,Томская область,69
Пировский район,4245,pirovskii-raion,2,,57.548293,91.97322,Красноярский край,4
Большесосновский район,85935,bolshesosnovskii-raion,2,,57.542651,54.45563,Пермский край,57
Заволжский район,24205,zavolzhskii-raion,2,,57.531651,42.090419,Ивановская область,24
Советский район,33236,sovetskii-raion,2,,57.53037,48.975808,Кировская область,33
Дедовичский район,58210,dedovichskii-raion,2,,57.530226,30.019936,Псковская область,58
Поддорский район,49234,poddorskii-raion,2,,57.521435,31.052621,Новгородская область,49
Вышневолоцкий район,28212,vyshnevolotskii-raion,2,,57.513619,34.293375,Тверская область,28
Игринский район,94218,igrinskii-raion,2,,57.510796,53.066844,Удмуртская Республика,94
Тарский район,52254,tarskii-raion,2,,57.509771,74.632788,Омская область,52
Палкинский район,58237,palkinskii-raion,2,,57.509316,27.989312,Псковская область,58
Немский район,33226,nemskii-raion,2,,57.504399,50.56844,Кировская область,33
Варнавинский район,22215,varnavinskii-raion,2,,57.500893,44.893414,Нижегородская область,22
Фировский район,28257,firovskii-raion,2,,57.495752,33.677391,Тверская область,28
Уренский район,22254,urenskii-raion,2,,57.48302,45.810738,Нижегородская область,22
Байкаловский район,65208,baikalovskii-raion,2,,57.477175,63.68511,Свердловская область,65
Кировградский,654531,kirovgradskii,2,,57.461236,59.889602,Свердловская область,65
Спировский район,28252,spirovskii-raion,2,,57.459687,35.183731,Тверская область,28
Тегульдетский,69252,teguldetskii,2,,57.456153,88.223553,Томская область,69
Угличский район,78246,uglichskii-raion,2,,57.446259,38.349385,Ярославская область,78
Нерехтский район,34226,nerekhtskii-raion,2,,57.444177,40.746719,Костромская область,34
Волгоречинск,34406,volgorechinsk,2,,57.439464,41.157456,Костромская область,34
Невьянский,652271,nevianskii,2,,57.436019,60.468449,Свердловская область,65
Кунгурский район,85962,kungurskii-raion,2,,57.404153,56.56041,Пермский край,57
Пижанский район,33231,pizhanskii-raion,2,,57.403639,48.521512,Кировская область,33
Режевской,652361,rezhevskoi,2,,57.399473,61.238881,Свердловская область,65
Верхний Тагил,6545351,verkhnii-tagil,2,,57.371768,59.934132,Свердловская область,65
Лебяжский район,33221,lebiazhskii-raion,2,,57.370506,49.514043,Кировская область,33
Тасеевский район,4252,taseevskii-raion,2,,57.360255,94.864744,Красноярский край,4
Селтинский район,94239,seltinskii-raion,2,,57.350801,51.978606,Удмуртская Республика,94
Кашинский район,28224,kashinskii-raion,2,,57.348971,37.439957,Тверская область,28
Тонкинский район,22252,tonkinskii-raion,2,,57.348097,46.332479,Нижегородская область,22
Маревский район,49223,marevskii-raion,2,,57.344852,32.122632,Новгородская область,49
Кикнурский район,33216,kiknurskii-raion,2,,57.343444,47.125656,Кировская область,33
Приволжский район,24220,privolzhskii-raion,2,,57.339991,41.397288,Ивановская область,24
Кишертский район,85953,kishertskii-raion,2,,57.339738,57.602509,Пермский край,57
Артемовский,652021,artemovskii,2,,57.338402,61.894651,Свердловская область,65
Шарканский район,94246,sharkanskii-raion,2,,57.336275,53.840077,Удмуртская Республика,94
Гаврилов-Ямский район,78212,gavrilov-iamskii-raion,2,,57.336017,39.89066,Ярославская область,78
Асиновский,69208,asinovskii,2,,57.335308,85.511333,Томская область,69
Шалинский,652571,shalinskii,2,,57.332325,58.58824,Свердловская область,65
Борисоглебский район,78206,borisoglebskii-raion,2,,57.33027,38.988536,Ярославская область,78
Вичугский район,24201,vichugskii-raion,2,,57.319871,41.751296,Ивановская область,24
Кинешемский район,24211,kineshemskii-raion,2,,57.28587,42.387698,Ивановская область,24
Осинский район,85977,osinskii-raion,2,,57.277779,55.695575,Пермский край,57
Лихославльский район,28238,likhoslavlskii-raion,2,,57.276913,35.563018,Тверская область,28
Частинский район,86004,chastinskii-raion,2,,57.271234,54.777999,Пермский край,57
Бирилюсский район,4206,biriliusskii-raion,2,,57.253093,90.642132,Красноярский край,4
Кривошеински,69236,krivosheinski,2,,57.252985,84.016635,Томская область,69
Юрьевецкий район,24237,iurevetskii-raion,2,,57.251135,42.955595,Ивановская область,24
Рамешковский район,28247,rameshkovskii-raion,2,,57.2504,36.27257,Тверская область,28
Фурмановский район,24231,furmanovskii-raion,2,,57.246626,41.041896,Ивановская область,24
Островский район,58233,ostrovskii-raion,2,,57.231751,28.610965,Псковская область,58
Яранский район,33250,iaranskii-raion,2,,57.231469,47.933457,Кировская область,33
Сокольский район,22259,sokolskii-raion,2,,57.21068,43.367248,Нижегородская область,22
Осташковский район,28245,ostashkovskii-raion,2,,57.201505,33.093279,Тверская область,28
Ковернинский район,22234,koverninskii-raion,2,,57.201125,43.988397,Нижегородская область,22
Знаменский район,52212,znamenskii-raion,2,,57.199301,73.610964,Омская область,52
Новоуральский,655401,novouralskii,2,,57.172669,59.996753,Свердловская область,65
Сюмский район,94241,siumskii-raion,2,,57.166686,51.480787,Удмуртская Республика,94
Краснобаковский район,22235,krasnobakovskii-raion,2,,57.155338,45.25504,Нижегородская область,22
Якшур-Бодьинский район,94250,iakshur-bodinskii-raion,2,,57.153458,52.998904,Удмуртская Республика,94
Тюмень,71401,tiumen,2,,57.153033,65.534328,Тюменская область,71
Бежаницкий район,58204,bezhanitskii-raion,2,,57.145085,30.017744,Псковская область,58
Новоржевский район,58223,novorzhevskii-raion,2,,57.133163,29.331288,Псковская область,58
Ординский район,85974,ordinskii-raion,2,,57.12668,56.740055,Пермский край,57
Комсомольский район,24213,komsomolskii-raion,2,,57.114283,40.384913,Ивановская область,24
Холмский район,49247,kholmskii-raion,2,,57.114205,31.185949,Новгородская область,49
Шарангский район,22256,sharangskii-raion,2,,57.103354,46.460723,Нижегородская область,22
Ростовский район,78237,rostovskii-raion,2,,57.099228,39.353468,Ярославская область,78
Родниковский район,24223,rodnikovskii-raion,2,,57.085775,41.724481,Ивановская область,24
Калязинский район,28222,kaliazinskii-raion,2,,57.085711,37.986358,Тверская область,28
Суксунский район,85995,suksunskii-raion,2,,57.080018,57.502599,Пермский край,57
Ивановский район,24207,ivanovskii-raion,2,,57.07969,40.802873,Ивановская область,24
Сернурский район,88248,sernurskii-raion,2,,57.074827,49.074066,Республика Марий Эл,88
Уржумский район,33241,urzhumskii-raion,2,,57.067385,50.087886,Кировская область,33
Пыталовский район,58253,pytalovskii-raion,2,,57.057235,27.949957,Псковская область,58
Тугулымский р-н,652501,tugulymskii-r-n,2,,57.054102,64.58992,Свердловская область,65
Воткинск,94410,votkinsk,2,,57.051806,53.987392,Удмуртская Республика,94
Асбестовский,654091,asbestovskii,2,,57.050357,61.49393,Свердловская область,65
Кувшиновский район,28234,kuvshinovskii-raion,2,,57.047625,34.135972,Тверская область,28
Новоторьяльский район,88236,novotorialskii-raion,2,,57.034971,48.629579,Республика Марий Эл,88
Большемуртинский район,4210,bolshemurtinskii-raion,2,,57.026463,93.018365,Красноярский край,4
Санчурский район,33233,sanchurskii-raion,2,,57.017321,47.212155,Кировская область,33
Кильмезский район,33217,kilmezskii-raion,2,,57.016493,50.974946,Кировская область,33
Лухский район,24215,lukhskii-raion,2,,57.015591,42.419993,Ивановская область,24
Седельниковский район,52252,sedelnikovskii-raion,2,,57.0149,75.573738,Омская область,52
Бакчарский,69212,bakcharskii,2,,57.01341,81.475678,Томская область,69
Пушкиногорский район,58251,pushkinogorskii-raion,2,,57.00549,28.793628,Псковская область,58
Кимрский район,28228,kimrskii-raion,2,,57.00101,37.125314,Тверская область,28
Иваново,24401,ivanovo,2,,57.000348,40.973921,Ивановская область,24
Тюхтетский район,4255,tiukhtetskii-raion,2,,56.996362,89.29227,Красноярский край,4
Среднеуральск,6542051,sredneuralsk,2,,56.991837,60.477136,Свердловская область,65
Увинский район,94244,uvinskii-raion,2,,56.983137,52.187465,Удмуртская Республика,94
Юргинский район,712531,iurginskii-raion,2,,56.97287,67.712482,Тюменская область,71
Пучежский район,24221,puchezhskii-raion,2,,56.972203,42.98859,Ивановская область,24
Верхняя Пышма,654201,verkhniaia-pyshma,2,,56.966958,60.579194,Свердловская область,65
Пеновский район,28246,penovskii-raion,2,,56.952088,32.484725,Тверская область,28
Усть-Кутский район,25244,ust-kutskii-raion,2,,56.95037,105.911255,Иркутская область,25
Абанский район,4201,abanskii-raion,2,,56.9501,96.538377,Красноярский край,4
Ильинский район,24209,ilinskii-raion,2,,56.949029,39.817385,Ивановская область,24
Торжокский район,28254,torzhokskii-raion,2,,56.943059,34.880846,Тверская область,28
Большеуковский район,52206,bolsheukovskii-raion,2,,56.939357,72.307984,Омская область,52
Еловский район,85944,elovskii-raion,2,,56.933484,54.882932,Пермский край,57
Кохма,24207504,kokhma,2,,56.932531,41.093208,Ивановская область,24
Тюменский район,71244,tiumenskii-raion,2,,56.928725,65.673585,Тюменская область,71
Аромашевский район,712071,aromashevskii-raion,2,,56.927605,68.963817,Тюменская область,71
Камышловский р-н,652231,kamyshlovskii-r-n,2,,56.926966,62.705991,Свердловская область,65
Талицкий,652491,talitskii,2,,56.921887,63.781319,Свердловская область,65
Викуловский район,712151,vikulovskii-raion,2,,56.917347,70.77792,Тюменская область,71
Березовский,654121,berezovskii,2,,56.910173,60.798203,Свердловская область,65
Первоуральск,654801,pervouralsk,2,,56.905839,59.943249,Свердловская область,65
Сухой Лог,652401,sukhoi-log,2,,56.905431,62.035542,Свердловская область,65
Воткинский район,94208,votkinskii-raion,2,,56.90458,53.92495,Удмуртская Республика,94
Озёрский,46242,oziorskii,2,,56.898731,37.768822,Московская область,46
Бардымский район,85929,bardymskii-raion,2,,56.893019,55.660432,Пермский край,57
Семеновский район,22247,semenovskii-raion,2,,56.890236,44.560804,Нижегородская область,22
Уинский район,85998,uinskii-raion,2,,56.875497,56.482346,Пермский край,57
Оршанский район,88240,orshanskii-raion,2,,56.873052,47.993931,Республика Марий Эл,88
Нижнеилимский район,25226,nizhneilimskii-raion,2,,56.864571,103.759332,Иркутская область,25
Тверь,28401,tver,2,,56.859611,35.911896,Тверская область,28
Ижевск,94401,izhevsk,2,,56.852593,53.204843,Удмуртская Республика,94
Ачитский,652041,achitskii,2,,56.845249,58.154659,Свердловская область,65
Екатеринбург,654011,ekaterinburg,2,,56.838011,60.597465,Свердловская область,65
Верхне-Ландеховский район,24202,verkhne-landekhovskii-raion,2,,56.836564,42.554632,Ивановская область,24
Дзержинский район,4213,dzerzhinskii-raion,2,,56.829675,95.140455,Красноярский край,4
Воскресенский район,22222,voskresenskii-raion,2,,56.823503,45.547693,Нижегородская область,22
Ялуторовский район,712563,ialutorovskii-raion,2,,56.819577,66.3847,Тюменская область,71
Переславский район,78232,pereslavskii-raion,2,,56.818986,38.727351,Ярославская область,78
Палехский район,24217,palekhskii-raion,2,,56.815611,41.958474,Ивановская область,24
Заречный,654261,zarechnyi,2,,56.814887,61.320636,Свердловская область,65
Красногородский район,58214,krasnogorodskii-raion,2,,56.800528,28.242727,Псковская область,58
Ревда,654841,revda,2,,56.800079,59.908718,Свердловская область,65
Локнянский район,58218,loknianskii-raion,2,,56.793864,30.325633,Псковская область,58
Пышминский р-н,652331,pyshminskii-r-n,2,,56.783658,63.249211,Свердловская область,65
Богданович,652101,bogdanovich,2,,56.776502,62.046295,Свердловская область,65
Кыштовский район,50234,kyshtovskii-raion,2,,56.773987,77.034012,Новосибирская область,50
Куженерский район,88220,kuzhenerskii-raion,2,,56.767885,48.991133,Республика Марий Эл,88
Шегарский,69258,shegarskii,2,,56.766642,83.746835,Томская область,69
Чунский район,25250,chunskii-raion,2,,56.765064,99.702307,Иркутская область,25
Зырянский,69220,zyrianskii,2,,56.764659,87.038109,Томская область,69
Вавожский район,94206,vavozhskii-raion,2,,56.763549,51.802132,Удмуртская Республика,94
Селижаровский район,28250,selizharovskii-raion,2,,56.759849,33.444305,Тверская область,28
Шуйский район,24233,shuiskii-raion,2,,56.75601,41.437443,Ивановская область,24
Дубна,46418,dubna,2,,56.744002,37.173176,Московская область,46
Лежневский район,24214,lezhnevskii-raion,2,,56.740833,40.89424,Ивановская область,24
Тейковский район,24229,teikovskii-raion,2,,56.736651,40.448343,Ивановская область,24
Переславль-Зелесский,78405,pereslavl-zelesskii,2,,56.736093,38.85431,Ярославская область,78
Сорокинский район,712381,sorokinskii-raion,2,,56.735911,69.803113,Тюменская область,71
Параньгинский район,88244,paranginskii-raion,2,,56.723279,49.446516,Республика Марий Эл,88
Советский район,88252,sovetskii-raion,2,,56.720508,48.454057,Республика Марий Эл,88
Нерюнгринский район,98111,neriungrinskii-raion,2,,56.713252,126.283357,Республика Саха (Якутия),98
Мари-Турекский район,88224,mari-turekskii-raion,2,,56.712387,49.822847,Республика Марий Эл,88
Чайковский район,86043,chaikovskii-raion,2,,56.710465,54.360256,Пермский край,57
Городецкий район,22228,gorodetskii-raion,2,,56.710381,43.624544,Нижегородская область,22
Завьяловский район,94216,zavialovskii-raion,2,,56.706918,53.280274,Удмуртская Республика,94
Дегтярск,6548451,degtiarsk,2,,56.698463,60.086674,Свердловская область,65
Чкаловский район,22255,chkalovskii-raion,2,,56.679529,43.068073,Нижегородская область,22
Каларский район,76215,kalarskii-raion,2,,56.667547,118.090057,Забайкальский край,76
Андреапольский район,28202,andreapolskii-raion,2,,56.664435,32.165769,Тверская область,28
Талдомский,46254,taldomskii,2,,56.660532,37.635206,Московская область,46
Опочецкий район,58229,opochetskii-raion,2,,56.648226,28.820074,Псковская область,58
Конаковский район,28230,konakovskii-raion,2,,56.646816,36.599916,Тверская область,28
Большеулуйский район,4211,bolsheuluiskii-raion,2,,56.643748,90.677373,Красноярский край,4
Йошкар-Ола,88401,ioshkar-ola,2,,56.632729,47.895638,Республика Марий Эл,88
Гаврилово-Посадский район,24203,gavrilovo-posadskii-raion,2,,56.628079,40.101881,Ивановская область,24
Торопенский район,28255,toropenskii-raion,2,,56.618423,31.410357,Тверская область,28
Красноуфимск,654681,krasnoufimsk,2,,56.617744,57.770692,Свердловская область,65
Пестяковский район,24219,pestiakovskii-raion,2,,56.61078,42.604624,Ивановская область,24
Северск,80419,seversk,2,,56.603185,84.880913,Томская область,69
Нижнесергиский р-н,652281,nizhnesergiskii-r-n,2,,56.600505,59.461815,Свердловская область,65
Килемарский район,88216,kilemarskii-raion,2,,56.596862,47.043325,Республика Марий Эл,88
Белоярский р-н,652091,beloiarskii-r-n,2,,56.596327,61.304754,Свердловская область,65
Малмыжский район,33223,malmyzhskii-raion,2,,56.593904,50.698947,Кировская область,33
Медведевский район,88228,medvedevskii-raion,2,,56.593755,47.693571,Республика Марий Эл,88
Калининский район,28220,kalininskii-raion,2,,56.591664,35.966846,Тверская область,28
Томский,69254,tomskii,2,,56.588749,84.590739,Томская область,69
Савинский район,24225,savinskii-raion,2,,56.579147,41.298572,Ивановская область,24
Сухобузимский район,4251,sukhobuzimskii-raion,2,,56.57706,93.768171,Красноярский край,4
Южский район,24235,iuzhskii-raion,2,,56.570514,42.033762,Ивановская область,24
Исетский район,712241,isetskii-raion,2,,56.561086,65.435315,Тюменская область,71
Юринский район,88256,iurinskii-raion,2,,56.552087,46.073064,Республика Марий Эл,88
Малопургинский район,94233,malopurginskii-raion,2,,56.549249,52.771307,Удмуртская Республика,94
Куединский район,85959,kuedinskii-raion,2,,56.540892,55.215713,Пермский край,57
Чернушинский район,86010,chernushinskii-raion,2,,56.536713,56.171026,Пермский край,57
Юрьев-Полский район,17256,iurev-polskii-raion,2,,56.535185,39.703865,Владимирская область,17
Шатровский район,37240,shatrovskii-raion,2,,56.517291,64.707536,Курганская область,37
Заводоуковский район,712221,zavodoukovskii-raion,2,,56.511103,66.793344,Тюменская область,71
Старицкий район,28253,staritskii-raion,2,,56.501998,35.1363,Тверская область,28
Октябрьский район,85971,oktiabrskii-raion,2,,56.500045,56.957249,Пермский край,57
Томск,80420,tomsk,2,,56.48466,84.948179,Томская область,69
Балахнинский район,22205,balakhninskii-raion,2,,56.466703,43.40681,Нижегородская область,22
Сарапул,94440,sarapul,2,,56.461621,53.803678,Удмуртская Республика,94
Сергиево-Посадский,46215,sergievo-posadskii,2,,56.458328,38.093087,Московская область,46
Можгинский район,94235,mozhginskii-raion,2,,56.456647,52.061,Удмуртская Республика,94
Северный район,50244,severnyi-raion,2,,56.455781,78.865794,Новосибирская область,50
Голышмановский район,712181,golyshmanovskii-raion,2,,56.449519,68.419043,Тюменская область,71
Полевской,654821,polevskoi,2,,56.446499,60.177072,Свердловская область,65
Можга,94430,mozhga,2,,56.442802,52.213839,Удмуртская Республика,94
Моркинский район,88232,morkinskii-raion,2,,56.442239,48.945095,Республика Марий Эл,88
Омутинский район,712341,omutinskii-raion,2,,56.437681,67.612949,Тюменская область,71
Сысертский,652411,sysertskii,2,,56.432635,60.805407,Свердловская область,65
Александровский район,17205,aleksandrovskii-raion,2,,56.432167,38.723596,Владимирская область,17
Балтасинский район,92215,baltasinskii-raion,2,,56.431709,50.27841,Республика Татарстан (Татарстан),92
Дмитровский,46208,dmitrovskii,2,,56.43151,37.431828,Московская область,46
Новосокольнический район,58226,novosokolnicheskii-raion,2,,56.429524,29.975029,Псковская область,58
Борский район,22211,borskii-raion,2,,56.411516,44.368484,Нижегородская область,22
Усть-Камчатский район,30219,ust-kamchatskii-raion,2,,56.406441,161.386563,Камчатский край,30
Сарапульский район,94237,sarapulskii-raion,2,,56.394625,53.529063,Удмуртская Республика,94
Мариинский район,32216,mariinskii-raion,2,,56.3946,87.797419,Кемеровская область,32
Пустошкинский район,58250,pustoshkinskii-raion,2,,56.385277,29.38657,Псковская область,58
Колосовский район,52221,kolosovskii-raion,2,,56.383453,73.471985,Омская область,52
Каменский,652221,kamenskii,2,,56.374337,61.577339,Свердловская область,65
Емельяновский район,4214,emelianovskii-raion,2,,56.371276,92.550316,Красноярский край,4
Камбарский район,94220,kambarskii-raion,2,,56.370279,54.158126,Удмуртская Республика,94
Суздальский район,17254,suzdalskii-raion,2,,56.368549,40.445172,Владимирская область,17
Клинский,46221,klinskii,2,,56.364241,36.610768,Московская область,46
Ковров,17425,kovrov,2,,56.363628,41.31122,Владимирская область,17
Кизнерский район,94226,kiznerskii-raion,2,,56.363279,51.591145,Удмуртская Республика,94
Ржевский район,28248,rzhevskii-raion,2,,56.352811,34.158825,Тверская область,28
Артинский,652031,artinskii,2,,56.347285,58.507472,Свердловская область,65
Великие Луки,58410,velikie-luki,2,,56.34265,30.523397,Псковская область,58
Красноуфимский р-н,652241,krasnoufimskii-r-n,2,,56.340091,57.705528,Свердловская область,65
Муромцевский район,52234,muromtsevskii-raion,2,,56.332546,75.381543,Омская область,52
Володарский район,22231,volodarskii-raion,2,,56.328289,42.985096,Нижегородская область,22
Камешковский район,17225,kameshkovskii-raion,2,,56.319509,40.889039,Владимирская область,17
Нижнеингашский район,4239,nizhneingashskii-raion,2,,56.313014,97.004639,Красноярский край,4
Лотошинский,46229,lotoshinskii,2,,56.297133,35.731775,Московская область,46
Ачинский район,4203,achinskii-raion,2,,56.287657,90.682044,Красноярский край,4
Боготольский район,4208,bogotolskii-raion,2,,56.286662,89.949621,Красноярский край,4
Киясовский район,94228,kiiasovskii-raion,2,,56.285868,53.184217,Удмуртская Республика,94
Вятско-Полянский район,33210,viatsko-polianskii-raion,2,,56.280726,51.165146,Кировская область,33
Горномарийский район,88208,gornomariiskii-raion,2,,56.275549,46.479659,Республика Марий Эл,88
Канский район,4221,kanskii-raion,2,,56.275419,95.303876,Красноярский край,4
Атнинский район,92213,atninskii-raion,2,,56.27258,49.408544,Республика Татарстан (Татарстан),92
Казачинско-Ленский район,25214,kazachinsko-lenskii-raion,2,,56.270101,107.576867,Иркутская область,25
Ачинск,44030,achinsk,2,,56.269496,90.495231,Красноярский край,4
Себежский район,58254,sebezhskii-raion,2,,56.268376,28.689154,Псковская область,58
Нелидовский район,28243,nelidovskii-raion,2,,56.259968,32.747958,Тверская область,28
Абатский район,712031,abatskii-raion,2,,56.257023,70.459539,Тюменская область,71
Татышлинский,80250,tatyshlinskii,2,,56.255292,55.761906,Республика Башкортостан,80
ЗАТО Железногорск,4535,zato-zheleznogorsk,2,,56.252922,93.532264,Красноярский край,4
Кольчугинский район,17240,kolchuginskii-raion,2,,56.249992,39.451761,Владимирская область,17
Звениговский район,88212,zvenigovskii-raion,2,,56.242749,47.902501,Республика Марий Эл,88
Ишимский район,712261,ishimskii-raion,2,,56.241234,69.328048,Тюменская область,71
Янаульский,80259,ianaulskii,2,,56.235385,54.907186,Республика Башкортостан,80
Упоровский район,712501,uporovskii-raion,2,,56.230892,66.005566,Тюменская область,71
Крутинский район,52226,krutinskii-raion,2,,56.225103,71.523701,Омская область,52
Яйский район,32243,iaiskii-raion,2,,56.2222,86.18321,Кемеровская область,32
Арский район,92212,arskii-raion,2,,56.220864,49.85745,Республика Татарстан (Татарстан),92
Далматовский район,37208,dalmatovskii-raion,2,,56.219898,63.102903,Курганская область,37
Вязниковский район,17210,viaznikovskii-raion,2,,56.218186,42.042673,Владимирская область,17
Кукморский район,92233,kukmorskii-raion,2,,56.215258,50.645156,Республика Татарстан (Татарстан),92
Боготол,44060,bogotol,2,,56.210117,89.531258,Красноярский край,4
Оленинский район,28244,oleninskii-raion,2,,56.208935,33.477049,Тверская область,28
Канск,44200,kansk,2,,56.205045,95.705055,Красноярский край,4
Воротынский район,22221,vorotynskii-raion,2,,56.182977,45.752527,Нижегородская область,22
Козульский район,4226,kozulskii-raion,2,,56.18199,91.440195,Красноярский край,4
Катайский район,37212,kataiskii-raion,2,,56.180202,62.481978,Курганская область,37
Ковровский район,17235,kovrovskii-raion,2,,56.175031,41.264813,Владимирская область,17
Зубцовский район,28218,zubtsovskii-raion,2,,56.174941,34.911173,Тверская область,28
Великолукский район,58206,velikolukskii-raion,2,,56.16822,30.646682,Псковская область,58
Большереченский район,52203,bolsherechenskii-raion,2,,56.167694,74.31845,Омская область,52
Каслинский район,75226,kaslinskii-raion,2,,56.157047,61.416783,Челябинская область,75
Лысковский район,22240,lyskovskii-raion,2,,56.155709,45.158022,Нижегородская область,22
Алнашский район,94202,alnashskii-raion,2,,56.155107,52.529813,Удмуртская Республика,94
Братск,25414,bratsk,2,,56.151362,101.63408,Иркутская область,25
Чебоксары,97401,cheboksary,2,,56.146277,47.250333,Чувашская Республика - Чувашия,97
Кожевниковский,69228,kozhevnikovskii,2,,56.142907,83.622715,Томская область,69
Муйский район,81235,muiskii-raion,2,,56.140841,114.485028,Республика Бурятия,81
Ижморский район,32204,izhmorskii-raion,2,,56.139135,86.80125,Кемеровская область,32
Владимир,17401,vladimir,2,,56.129042,40.40703,Владимирская область,17
Западнодвинский район,28216,zapadnodvinskii-raion,2,,56.123779,31.833509,Тверская область,28
Солнечногорский,46252,solnechnogorskii,2,,56.121496,37.057958,Московская область,46
Красноармейск,46443,krasnoarmeisk,2,,56.120959,38.14094,Московская область,46
Сосновоборск,44330,sosnovoborsk,2,,56.120211,93.335434,Красноярский край,4
Куньинский район,58216,kuninskii-raion,2,,56.114681,31.145193,Псковская область,58
ЗАТО Зеленогорск,45370,zato-zelenogorsk,2,,56.113246,94.589006,Красноярский край,4
Пушкинский,46247,pushkinskii,2,,56.11175,37.841019,Московская область,46
Новочебоксарск,97410,novocheboksarsk,2,,56.109551,47.479125,Чувашская Республика - Чувашия,97
Невельский район,58220,nevelskii-raion,2,,56.093852,29.849732,Псковская область,58
Гороховецкий район,17215,gorokhovetskii-raion,2,,56.091406,42.510992,Владимирская область,17
Нефтекамск,80427,neftekamsk,2,,56.088408,54.248236,Республика Башкортостан,80
Шабринск,37405,shabrinsk,2,,56.087042,63.629747,Курганская область,37
Аскинский,80204,askinskii,2,,56.08552,56.578618,Республика Башкортостан,80
Снежинск,75545,snezhinsk,2,,56.085209,60.732536,Челябинская область,75
Тяжинский район,32234,tiazhinskii-raion,2,,56.085003,88.75867,Кемеровская область,32
Анжеро-Судженс,32404,anzhero-sudzhens,2,,56.083175,86.018216,Кемеровская область,32
Каракулинский район,94222,karakulinskii-raion,2,,56.077513,53.69199,Удмуртская Республика,94
Граховский район,94212,grakhovskii-raion,2,,56.076162,52.081733,Удмуртская Республика,94
Киржачский район,17230,kirzhachskii-raion,2,,56.074057,38.891051,Владимирская область,17
Тайга,32440,taiga,2,,56.065138,85.631024,Кемеровская область,32
Кстовский район,22237,kstovskii-raion,2,,56.059001,44.317522,Нижегородская область,22
Волжский район,88204,volzhskii-raion,2,,56.053804,48.555271,Республика Марий Эл,88
Верхний Уфалей,75406,verkhnii-ufalei,2,,56.048721,60.23195,Челябинская область,75
Высокогорский район,92222,vysokogorskii-raion,2,,56.041154,49.276043,Республика Татарстан (Татарстан),92
Шадринский район,37238,shadrinskii-raion,2,,56.0326,63.477096,Курганская область,37
Богородский район,22207,bogorodskii-raion,2,,56.023756,43.620645,Нижегородская область,22
Собинский район,17250,sobinskii-raion,2,,56.015772,40.005744,Владимирская область,17
Мытищинский,46234,mytishchinskii,2,,56.015394,37.664923,Московская область,46
Сабинский район,92252,sabinskii-raion,2,,56.015163,50.455189,Республика Татарстан (Татарстан),92
Щелковский,46259,shchelkovskii,2,,56.015098,38.21108,Московская область,46
Павловский район,22242,pavlovskii-raion,2,,56.012904,43.055093,Нижегородская область,22
Назарово,44260,nazarovo,2,,56.012345,90.417688,Красноярский край,4
Лобня,46440,lobnia,2,,56.012053,37.475082,Московская область,46
Красноярск,44010,krasnoiarsk,2,,56.010563,92.852572,Красноярский край,4
Волоколамский,46205,volokolamskii,2,,56.007831,35.970359,Московская область,46
Матушкино,45272562,matushkino,2,,56.005103,37.200116,Москва,45
Агрызский район,92201,agryzskii-raion,2,,56.000678,53.068164,Республика Татарстан (Татарстан),92
Моргаушский район,97232,morgaushskii-raion,2,,55.999823,46.756781,Чувашская Республика - Чувашия,97
Силино,45272572,silino,2,,55.999007,37.168244,Москва,45
Радужный,17537,raduzhnyi,2,,55.996052,40.332281,Владимирская область,17
Мариинско-Посадский район,97229,mariinsko-posadskii-raion,2,,55.994109,47.794919,Чувашская Республика - Чувашия,97
Савёлки,45272568,saviolki,2,,55.989915,37.238016,Москва,45
Чебоксарский район,97244,cheboksarskii-raion,2,,55.985644,47.078629,Чувашская Республика - Чувашия,97
Судогодский район,17252,sudogodskii-raion,2,,55.984778,40.838536,Владимирская область,17
Шаховской,46258,shakhovskoi,2,,55.983111,35.460062,Московская область,46
Старое Крюково,45272576,staroe-kriukovo,2,,55.980895,37.199056,Москва,45
Восход,464621,voskhod,2,,55.974569,36.457784,Московская область,46
Ивантеевка,46432,ivanteevka,2,,55.97,37.917574,Московская область,46
Крюково,45272580,kriukovo,2,,55.96933,37.176122,Москва,45
Нязепетровский район,75244,niazepetrovskii-raion,2,,55.968277,59.575515,Челябинская область,75
Петушинский район,17246,petushinskii-raion,2,,55.965043,39.42068,Владимирская область,17
Тюкалинский район,52256,tiukalinskii-raion,2,,55.963224,72.406494,Омская область,52
Фрязино,46480,friazino,2,,55.957938,38.052339,Московская область,46
Дивногорск,44090,divnogorsk,2,,55.957721,92.380148,Красноярский край,4
Краснокамский,80237,krasnokamskii,2,,55.951895,54.231024,Республика Башкортостан,80
Менделеевский район,92239,mendeleevskii-raion,2,,55.947157,52.420245,Республика Татарстан (Татарстан),92
Калтасинский,80233,kaltasinskii,2,,55.944364,54.814696,Республика Башкортостан,80
Балтачевский,80208,baltachevskii,2,,55.941319,56.00164,Республика Башкортостан,80
Молжаниновский,45277584,molzhaninovskii,2,,55.936802,37.376743,Москва,45
Ядринский район,97253,iadrinskii-raion,2,,55.934956,46.363166,Чувашская Республика - Чувашия,97
Долгопрудный,46416,dolgoprudnyi,2,,55.93362,37.514401,Московская область,46
Юбилейный,46493,iubileinyi,2,,55.932934,37.842888,Московская область,46
Яшкинский район,32246,iashkinskii-raion,2,,55.932132,85.198369,Кемеровская область,32
Мечетлинский,80242,mechetlinskii,2,,55.930609,58.325132,Республика Башкортостан,80
Белоозерский район,37204,beloozerskii-raion,2,,55.926736,65.506651,Курганская область,37
Королёв,46434,koroliov,2,,55.922212,37.854629,Московская область,46
Венгеровский район,50208,vengerovskii-raion,2,,55.920043,76.925002,Новосибирская область,50
Истринский,46218,istrinskii,2,,55.913777,36.716562,Московская область,46
Убинский район,50254,ubinskii-raion,2,,55.910463,80.347843,Новосибирская область,50
Алтуфьевский,45280554,altufevskii,2,,55.907869,37.582933,Москва,45
Бородино,44070,borodino,2,,55.905442,94.902177,Красноярский край,4
Лианозово,45280563,lianozovo,2,,55.900668,37.568479,Москва,45
Агидель,80403,agidel,2,,55.899835,53.92204,Республика Башкортостан,80
Жарковский район,28214,zharkovskii-raion,2,,55.898402,32.175327,Тверская область,28
Каргапольский район,37210,kargapolskii-raion,2,,55.897534,64.541761,Курганская область,37
Армизонский район,712051,armizonskii-raion,2,,55.895272,67.57839,Тюменская область,71
Бибирево,45280558,bibirevo,2,,55.894879,37.607745,Москва,45
Куркино,45283555,kurkino,2,,55.891239,37.389661,Москва,45
Химки,46483,khimki,2,,55.888775,37.430319,Московская область,46
Северное Медведково,45280583,severnoe-medvedkovo,2,,55.88823,37.655023,Москва,45
Колыванский район,50221,kolyvanskii-raion,2,,55.887185,82.610187,Новосибирская область,50
Восточное Дегунино,45277568,vostochnoe-degunino,2,,55.884277,37.558841,Москва,45
Электрогорск,5,elektrogorsk,2,,55.883171,38.785733,Московская область,46
Бабушкинский,45280556,babushkinskii,2,,55.878076,37.659649,Москва,45
Звёздный-городок,2,zviozdnyi-gorodok,2,,55.87695,38.112607,Московская область,46
Левобережный,45277583,levoberezhnyi,2,,55.875127,37.463691,Москва,45
Спасский район,22251,spasskii-raion,2,,55.874188,45.5926,Нижегородская область,22
Бескудниковский,45277559,beskudnikovskii,2,,55.873834,37.547836,Москва,45
Западное Дегунино,45277577,zapadnoe-degunino,2,,55.872339,37.519162,Москва,45
Лосино-Петровский,4,losino-petrovskii,2,,55.87137,38.200606,Московская область,46
Южное Медведково,45280594,iuzhnoe-medvedkovo,2,,55.870329,37.636491,Москва,45
Ховрино,45277595,khovrino,2,,55.869041,37.489491,Москва,45
Ярославский,45280597,iaroslavskii,2,,55.862858,37.69746,Москва,45
Волжск,88405,volzhsk,2,,55.862333,48.371574,Республика Марий Эл,88
Свиблово,45280580,sviblovo,2,,55.861711,37.636608,Москва,45
Сычевский район,66230,sychevskii-raion,2,,55.861646,34.136951,Смоленская область,66
Северное Тушино,45283573,severnoe-tushino,2,,55.861641,37.42827,Москва,45
Отрадное,45280574,otradnoe,2,,55.860479,37.59904,Москва,45
Головинский,45277571,golovinskii,2,,55.849519,37.512272,Москва,45
Митино,45283559,mitino,2,,55.84537,37.365828,Москва,45
Южное Тушино,45283593,iuzhnoe-tushino,2,,55.842868,37.429699,Москва,45
Тюлячинский район,92256,tiuliachinskii-raion,2,,55.839896,50.249817,Республика Татарстан (Татарстан),92
Уярский район,4257,uiarskii-raion,2,,55.838617,94.233228,Красноярский край,4
Северный,45280585,severnyi,2,,55.838384,37.525765,Москва,45
Кунашакский район,75236,kunashakskii-raion,2,,55.836282,61.622695,Челябинская область,75
Тимирязевский,45277592,timiriazevskii,2,,55.834441,37.551124,Москва,45
Ростокино,45280577,rostokino,2,,55.834421,37.661266,Москва,45
Ногинский,46239,noginskii,2,,55.83298,38.349331,Московская область,46
Цивильский район,97241,tsivilskii-raion,2,,55.832879,47.488036,Чувашская Республика - Чувашия,97
Рыбинский район,4247,rybinskii-raion,2,,55.832667,94.790265,Красноярский край,4
Коптево,45277580,koptevo,2,,55.832515,37.529043,Москва,45
Марфино,45280567,marfino,2,,55.830002,37.588745,Москва,45
Бельский район,28206,belskii-raion,2,,55.829977,32.961532,Тверская область,28
Павлово-Посадский,46245,pavlovo-posadskii,2,,55.829669,38.696458,Московская область,46
Селивановский район,17248,selivanovskii-raion,2,,55.826306,41.647918,Владимирская область,17
Назаровский район,4237,nazarovskii-raion,2,,55.824789,90.38295,Красноярский край,4
Гольяново,45263564,golianovo,2,,55.824162,37.79613,Москва,45
Метрогородок,45263581,metrogorodok,2,,55.823338,37.756739,Москва,45
Останкинский,45280572,ostankinskii,2,,55.82263,37.613162,Москва,45
Покровское-Стрешнево,45283569,pokrovskoe-streshnevo,2,,55.822109,37.476375,Москва,45
Красногорский,46223,krasnogorskii,2,,55.821548,37.237037,Московская область,46
Козловский район,97219,kozlovskii-raion,2,,55.819924,48.12292,Чувашская Республика - Чувашия,97
Дальнеконстантиновский район,22230,dalnekonstantinovskii-raion,2,,55.819863,44.069857,Нижегородская область,22
Поселок Восточный,45263561,poselok-vostochnyi,2,,55.819166,37.867017,Москва,45
Иланский район,4218,ilanskii-raion,2,,55.818508,96.278683,Красноярский край,4
Берёзовский район,4205,beriozovskii-raion,2,,55.817132,93.179019,Красноярский край,4
Войковский,45277565,voikovskii,2,,55.815428,37.493767,Москва,45
Усьвятский район,58258,usviatskii-raion,2,,55.814305,30.75456,Псковская область,58
Бутырский,45280561,butyrskii,2,,55.814123,37.589204,Москва,45
Алексеевский,45280552,alekseevskii,2,,55.812949,37.650163,Москва,45
Орехово-Зуево,46457,orekhovo-zuevo,2,,55.809034,38.978349,Московская область,46
Дмитровский,45277574,dmitrovskii,2,,55.807982,37.570528,Москва,45
Северное Измайлово,45263585,severnoe-izmailovo,2,,55.806843,37.805221,Москва,45
Бураевский,80218,buraevskii,2,,55.806535,55.383626,Республика Башкортостан,80
Северобайкальский район,81245,severobaikalskii-raion,2,,55.80614,110.565166,Республика Бурятия,81
Сокол,45277589,sokol,2,,55.804921,37.505391,Москва,45
Сокольники,45263591,sokolniki,2,,55.804552,37.670636,Москва,45
Богородское,45263552,bogorodskoe,2,,55.804238,37.684138,Москва,45
Строгино,45283577,strogino,2,,55.803783,37.402695,Москва,45
Елабужский район,92226,elabuzhskii-raion,2,,55.802634,51.889224,Республика Татарстан (Татарстан),92
Большемурашкинский район,22210,bolshemurashkinskii-raion,2,,55.802199,44.733748,Нижегородская область,22
Аэропорт,45277553,aeroport,2,,55.800979,37.531765,Москва,45
Щукино,45283587,shchukino,2,,55.80059,37.473519,Москва,45
Вачский район,22217,vachskii-raion,2,,55.799259,42.685077,Нижегородская область,22
Усть-Тарский район,50255,ust-tarskii-raion,2,,55.798333,75.809177,Новосибирская область,50
Преображенское,45263594,preobrazhenskoe,2,,55.797296,37.722487,Москва,45
Марьина роща,45280569,marina-roshcha,2,,55.79722,37.611518,Москва,45
Балашиха,46204,balashikha,2,,55.796339,37.938199,Московская область,46
Казань,92401,kazan,2,,55.796289,49.108795,Республика Татарстан (Татарстан),92
Восточное Измайлово,45263558,vostochnoe-izmailovo,2,,55.795818,37.821804,Москва,45
Савеловский,45277586,savelovskii,2,,55.793308,37.595537,Москва,45
Княгининский район,22233,kniagininskii-raion,2,,55.789107,45.164472,Нижегородская область,22
Чебулинский район,32237,chebulinskii-raion,2,,55.785721,87.521762,Кемеровская область,32
Зеленодольский район,92228,zelenodolskii-raion,2,,55.785453,48.53876,Республика Татарстан (Татарстан),92
Электросталь,46490,elektrostal,2,,55.784445,38.444849,Московская область,46
Измайлово,45263570,izmailovo,2,,55.783681,37.772783,Москва,45
Белокатайский,80210,belokataiskii,2,,55.781777,58.983597,Республика Башкортостан,80
Красносельский,45286565,krasnoselskii,2,,55.781286,37.663306,Москва,45
Беговой,45277556,begovoi,2,,55.780319,37.558706,Москва,45
Мещанский,45286570,meshchanskii,2,,55.780066,37.628801,Москва,45
Хорошевский,45277598,khoroshevskii,2,,55.77838,37.530768,Москва,45
Хорошево-Мневники,45283582,khoroshevo-mnevniki,2,,55.777707,37.492078,Москва,45
Соколиная гора,45263588,sokolinaia-gora,2,,55.772775,37.730625,Москва,45
Басманный,45286555,basmannyi,2,,55.771013,37.659236,Москва,45
Красноармейский район,97224,krasnoarmeiskii-raion,2,,55.769393,47.150836,Чувашская Республика - Чувашия,97
Бердюжский район,712101,berdiuzhskii-raion,2,,55.768932,68.506206,Тюменская область,71
Пестречинский район,92248,pestrechinskii-raion,2,,55.765179,49.735405,Республика Татарстан (Татарстан),92
Тверской,45286585,tverskoi,2,,55.763918,37.606388,Москва,45
Крылатское,45268560,krylatskoe,2,,55.763194,37.423716,Москва,45
Озёрск,75543,oziorsk,2,,55.763184,60.707599,Челябинская область,75
Пресненский,45286575,presnenskii,2,,55.760844,37.57112,Москва,45
Караидельский,80234,karaidelskii,2,,55.760666,56.952147,Республика Башкортостан,80
Реутов,46464,reutov,2,,55.760515,37.855141,Московская область,46
Саргатский район,52251,sargatskii-raion,2,,55.756791,73.353237,Омская область,52
Спецтрассы,45297558,spetstrassy,2,,55.755814,37.617635,Москва,45
Лефортово,45290564,lefortovo,2,,55.753635,37.704817,Москва,45
Перово,45263583,perovo,2,,55.751994,37.767456,Москва,45
Макроусовский район,37224,makrousovskii-raion,2,,55.749511,66.882456,Курганская область,37
Арбат,45286552,arbat,2,,55.749491,37.591521,Москва,45
Филевский парк,45268595,filevskii-park,2,,55.74824,37.483759,Москва,45
Новогиреево,45263576,novogireevo,2,,55.748154,37.804108,Москва,45
Аликовский район,97205,alikovskii-raion,2,,55.747003,46.734386,Чувашская Республика - Чувашия,97
Железнодорожный,46424,zheleznodorozhnyi,2,,55.746436,38.009049,Московская область,46
Новокосино,45263579,novokosino,2,,55.745113,37.864052,Москва,45
Гагаринский,45293558,gagarinskii,2,,55.744708,37.594531,Москва,45
Киевский,45298555,kievskii,2,,55.744368,37.570456,Москва,45
Набережные Челны,92430,naberezhnye-chelny,2,,55.743583,52.395874,Республика Татарстан (Татарстан),92
Сосновский район,22250,sosnovskii-raion,2,,55.743431,43.225009,Нижегородская область,22
Кунцево,45268562,kuntsevo,2,,55.74261,37.398482,Москва,45
Таганский,45286580,taganskii,2,,55.740791,37.666773,Москва,45
Дорогомилово,45268554,dorogomilovo,2,,55.740436,37.553163,Москва,45
Можайский,45268569,mozhaiskii,2,,55.740081,37.546884,Москва,45
Якиманка,45286596,iakimanka,2,,55.73964,37.616009,Москва,45
Замоскворечье,45286560,zamoskvoreche,2,,55.733609,37.633715,Москва,45
Мамадышский район,92238,mamadyshskii-raion,2,,55.730994,51.145141,Республика Татарстан (Татарстан),92
Вешняки,45263555,veshniaki,2,,55.730771,37.815184,Москва,45
Звенигород,46430,zvenigorod,2,,55.729686,36.855325,Московская область,46
Хамовники,45286590,khamovniki,2,,55.729077,37.574813,Москва,45
Нижегородский,45290578,nizhegorodskii,2,,55.728423,37.723807,Москва,45
Фили-Давыдково,45268597,fili-davydkovo,2,,55.727136,37.469359,Москва,45
Братский район,25204,bratskii-raion,2,,55.719749,101.76085,Иркутская область,25
Рязанский,45290586,riazanskii,2,,55.719409,37.780904,Москва,45
Донской,45296561,donskoi,2,,55.719176,37.604547,Москва,45
Косино-Ухтомский,45263573,kosino-ukhtomskii,2,,55.717061,37.86345,Москва,45
Болотнинский район,50206,bolotninskii-raion,2,,55.716362,84.190432,Новосибирская область,50
Даниловский,45296559,danilovskii,2,,55.712513,37.629071,Москва,45
Текстильщики,45290590,tekstilshchiki,2,,55.708917,37.734371,Москва,45
Рузский,46249,ruzskii,2,,55.708602,36.28061,Московская область,46
Кыштым,75428,kyshtym,2,,55.707877,60.538949,Челябинская область,75
Южнопортовый,45290594,iuzhnoportovyi,2,,55.705057,37.68836,Москва,45
Дуванский,80223,duvanskii,2,,55.701699,57.850777,Республика Башкортостан,80
Муромский район,17244,muromskii-raion,2,,55.69904,42.010559,Владимирская область,17
Кузьминки,45290562,kuzminki,2,,55.69864,37.773547,Москва,45
Ломоносовский,45293574,lomonosovskii,2,,55.69729,37.529268,Москва,45
Выхино-Жулебино,45290554,vykhino-zhulebino,2,,55.696357,37.824553,Москва,45
Академический,45293554,akademicheskii,2,,55.691846,37.568848,Москва,45
Раменки,45268584,ramenki,2,,55.690755,37.491512,Москва,45
Красночетайский район,97226,krasnochetaiskii-raion,2,,55.689649,46.203032,Чувашская Республика - Чувашия,97
Очаково-Матвеевское,45268579,ochakovo-matveevskoe,2,,55.689649,37.448554,Москва,45
Нагорный,45296575,nagornyi,2,,55.687462,37.614734,Москва,45
Власиха,1,vlasikha,2,,55.685386,37.192247,Московская область,46
Нагатинский затон,45296573,nagatinskii-zaton,2,,55.685274,37.700658,Москва,45
Печатники,45290582,pechatniki,2,,55.685158,37.723807,Москва,45
Некрасовка,45290574,nekrasovka,2,,55.68363,37.925398,Москва,45
Проспект Вернадского,45268581,prospekt-vernadskogo,2,,55.681656,37.515335,Москва,45
Урмарский район,97238,urmarskii-raion,2,,55.680752,47.895916,Чувашская Республика - Чувашия,97
Люблино,45290568,liublino,2,,55.677717,37.748726,Москва,45
Нагатино-Садовники,45296571,nagatino-sadovniki,2,,55.671422,37.64171,Москва,45
Березовский,32410,berezovskii,2,,55.669361,86.274514,Кемеровская область,32
Мензелинский район,92240,menzelinskii-raion,2,,55.66731,53.088915,Республика Татарстан (Татарстан),92
Котловка,45293570,kotlovka,2,,55.665619,37.588566,Москва,45
Черемушки,45293590,cheremushki,2,,55.664649,37.561347,Москва,45
Рошаль,46465,roshal,2,,55.663299,39.865579,Московская область,46
Обручевский,45293578,obruchevskii,2,,55.660917,37.518479,Москва,45
Тропарево-Никулино,45268592,troparevo-nikulino,2,,55.660318,37.468488,Москва,45
Котельники,3,kotelniki,2,,55.65984,37.863199,Московская область,46
Актанышский район,92205,aktanyshskii-raion,2,,55.659348,53.750848,Республика Татарстан (Татарстан),92
Люберецкий,46231,liuberetskii,2,,55.650963,37.962957,Московская область,46
Гагаринский район,66208,gagarinskii-raion,2,,55.650404,34.974935,Смоленская область,66
Зюзино,45293562,ziuzino,2,,55.648783,37.586149,Москва,45
Ново-Переделкино,45268577,novo-peredelkino,2,,55.646081,37.357169,Москва,45
Солнцево,45268588,solntsevo,2,,55.645918,37.40168,Москва,45
Коньково,45293566,konkovo,2,,55.643414,37.530588,Москва,45
Москворечье-Сабурово,45296569,moskvoreche-saburovo,2,,55.642692,37.671139,Москва,45
Одинцовский,46241,odintsovskii,2,,55.641737,36.900798,Московская область,46
Капотня,45290558,kapotnia,2,,55.641183,37.803829,Москва,45
Чертаново Северное,45296593,chertanovo-severnoe,2,,55.636412,37.594917,Москва,45
Северобайкальск,81420,severobaikalsk,2,,55.635996,109.335597,Республика Бурятия,81
Внуковское,45297552,vnukovskoe,2,,55.6335,37.290298,Москва,45
Братеево,45296557,brateevo,2,,55.633434,37.765058,Москва,45
Дзержинский,46411,dzerzhinskii,2,,55.63096,37.849679,Московская область,46
Теплый Стан,45293586,teplyi-stan,2,,55.624195,37.492626,Москва,45
Куйбышевский район,50230,kuibyshevskii-raion,2,,55.624154,78.573841,Новосибирская область,50
Зябликово,45296565,ziablikovo,2,,55.620423,37.746076,Москва,45
Гусь-Хрустальный,17420,gus-khrustalnyi,2,,55.619818,40.657902,Владимирская область,17
Орехово-Борисово Северное,45296577,orekhovo-borisovo-severnoe,2,,55.618278,37.704817,Москва,45
Чертаново Центральное,45296595,chertanovo-tsentralnoe,2,,55.61388,37.604098,Москва,45
Ясенево,45293598,iasenevo,2,,55.613204,37.546444,Москва,45
Мосрентген,45297568,mosrentgen,2,,55.612894,37.469611,Москва,45
Внуково,45268552,vnukovo,2,,55.608475,37.2924,Москва,45
Царицыно,45296590,tsaritsyno,2,,55.605704,37.661994,Москва,45
Орехово-Борисово Южное,45296579,orekhovo-borisovo-iuzhnoe,2,,55.604264,37.733132,Москва,45
Московский,45297565,moskovskii,2,,55.602144,37.346551,Москва,45
Нижнеомский район,52239,nizhneomskii-raion,2,,55.600374,74.870968,Омская область,52
Казанский район,712301,kazanskii-raion,2,,55.600206,69.259992,Тюменская область,71
Кокошкино,45297559,kokoshkino,2,,55.59808,37.171864,Москва,45
Краснознаменск,46505,krasnoznamensk,2,,55.597856,37.039462,Московская область,46
Жуковский,46425,zhukovskii,2,,55.59778,38.119497,Московская область,46
Марушкинское,45297562,marushkinskoe,2,,55.59516,37.208273,Москва,45
Бирюлево Восточное,45296553,biriulevo-vostochnoe,2,,55.594585,37.678649,Москва,45
Перевозский район,22244,perevozskii-raion,2,,55.594062,44.508854,Нижегородская область,22
Чертаново Южное,45296597,chertanovo-iuzhnoe,2,,55.591889,37.600361,Москва,45
Орехово-Зуевский,46243,orekhovo-zuevskii,2,,55.588237,39.100269,Московская область,46
Бирюлево Западное,45296555,biriulevo-zapadnoe,2,,55.586944,37.63765,Москва,45
Верхнеуслонский район,92220,verkhneuslonskii-raion,2,,55.585194,48.746019,Республика Татарстан (Татарстан),92
Велижский район,66203,velizhskii-raion,2,,55.584304,31.283731,Смоленская область,66
Пильнинский район,22245,pilninskii-raion,2,,55.582299,45.883241,Нижегородская область,22
Муром,17435,murom,2,,55.579169,42.052411,Владимирская область,17
Сосенское,45297574,sosenskoe,2,,55.57833,37.465892,Москва,45
Лыткарино,46441,lytkarino,2,,55.577856,37.90347,Московская область,46
Навашинский район,22241,navashinskii-raion,2,,55.577526,42.501542,Нижегородская область,22
Мишкинский,80243,mishkinskii,2,,55.572721,55.94068,Республика Башкортостан,80
Новодугинский район,66246,novoduginskii-raion,2,,55.570263,34.094083,Смоленская область,66
Филимонковское,45297577,filimonkovskoe,2,,55.570014,37.322368,Москва,45
Северное Бутово,45293582,severnoe-butovo,2,,55.568914,37.570519,Москва,45
Сладковский район,712361,sladkovskii-raion,2,,55.56866,70.160625,Тюменская область,71
Кемеровский район,32207,kemerovskii-raion,2,,55.567316,86.594773,Кемеровская область,32
Юргинский район,32240,iurginskii-raion,2,,55.561283,85.045161,Кемеровская область,32
Рыбно-Слободский район,92250,rybno-slobodskii-raion,2,,55.559267,50.339729,Республика Татарстан (Татарстан),92
Сергачкий район,22248,sergachkii-raion,2,,55.55528,45.442411,Нижегородская область,22
Варгашинский район,37206,vargashinskii-raion,2,,55.554562,66.042199,Курганская область,37
Тайшетский район,25236,taishetskii-raion,2,,55.552933,97.813805,Иркутская область,25
Называевский район,52236,nazyvaevskii-raion,2,,55.552184,71.205743,Омская область,52
Марьино,45290572,marino,2,,55.549093,37.322844,Москва,45
Ленинский,46228,leninskii,2,,55.547657,37.771571,Московская область,46
Южное Бутово,45293594,iuzhnoe-butovo,2,,55.542396,37.531523,Москва,45
Ивановское,45263567,ivanovskoe,2,,55.5394,37.148104,Москва,45
Шарыпово,44400,sharypovo,2,,55.539064,89.180151,Красноярский край,4
Холм-Жирковский район,66238,kholm-zhirkovskii-raion,2,,55.535381,33.299263,Смоленская область,66
Гусь-Хрустальный район,17220,gus-khrustalnyi-raion,2,,55.535208,40.730154,Владимирская область,17
Тукаевский район,92257,tukaevskii-raion,2,,55.534495,52.65016,Республика Татарстан (Татарстан),92
Вурнарский район,97210,vurnarskii-raion,2,,55.531168,46.934297,Чувашская Республика - Чувашия,97
Воскресенское,45297554,voskresenskoe,2,,55.529619,37.445752,Москва,45
Канашский район,97216,kanashskii-raion,2,,55.525053,47.388979,Чувашская Республика - Чувашия,97
Первомайское поселение,45298572,pervomaiskoe-poselenie,2,,55.519723,37.218334,Москва,45
Бутурлинский район,22212,buturlinskii-raion,2,,55.515304,44.893001,Нижегородская область,22
Щербинка,45297581,shcherbinka,2,,55.508743,37.563314,Москва,45
Канаш,97407,kanash,2,,55.506943,47.491764,Чувашская Республика - Чувашия,97
Раменский,46248,ramenskii,2,,55.506153,38.154091,Московская область,46
Можайский,46233,mozhaiskii,2,,55.504766,35.747442,Московская область,46
Частоозерский район,37236,chastoozerskii-raion,2,,55.502742,67.973514,Курганская область,37
Дюртюлинский,80224,diurtiulinskii,2,,55.500116,54.898086,Республика Башкортостан,80
Янтиковский район,97258,iantikovskii-raion,2,,55.499943,47.782836,Чувашская Республика - Чувашия,97
Десёновское,45297556,desionovskoe,2,,55.499571,37.36661,Москва,45
Вадский район,22214,vadskii-raion,2,,55.496435,44.223639,Нижегородская область,22
Карабаш,75415,karabash,2,,55.490789,60.203042,Челябинская область,75
Троицк,45298578,troitsk,2,,55.485469,37.305327,Москва,45
Арзамасский район,22203,arzamasskii-raion,2,,55.477097,43.713468,Нижегородская область,22
Рязановское,45297571,riazanovskoe,2,,55.476567,37.531127,Москва,45
Илишевский,80230,ilishevskii,2,,55.476363,54.310363,Республика Башкортостан,80
Шатурский,46257,shaturskii,2,,55.470877,39.788477,Московская область,46
Лаишевский район,92234,laishevskii-raion,2,,55.470648,49.430149,Республика Татарстан (Татарстан),92
Горьковский район,52209,gorkovskii-raion,2,,55.463406,74.096665,Омская область,52
Красноармейский район,75234,krasnoarmeiskii-raion,2,,55.443021,62.051092,Челябинская область,75
Курган,37401,kurgan,2,,55.441606,65.344316,Курганская область,37
Домодедово,46209,domodedovo,2,,55.437112,37.768049,Московская область,46
Щербинка,46489,shcherbinka,2,,55.435411,37.6494,Московская область,46
Кетовский район,37214,ketovskii-raion,2,,55.43487,64.952318,Курганская область,37
Подольский,46246,podolskii,2,,55.434191,37.755805,Московская область,46
Тындинский район,10254,tyndinskii-raion,2,,55.431555,123.717643,Амурская область,10
Подольск,46460,podolsk,2,,55.431177,37.544737,Московская область,46
Новофёдоровское поселение,45298567,novofiodorovskoe-poselenie,2,,55.42564,36.931879,Москва,45
Бронницы,46405,bronnitsy,2,,55.425471,38.264108,Московская область,46
Кигинский,80236,kiginskii,2,,55.422605,58.712288,Республика Башкортостан,80
Краснопахорское поселение,45298561,krasnopakhorskoe-poselenie,2,,55.421496,37.270661,Москва,45
Нижнекамский район,92244,nizhnekamskii-raion,2,,55.419534,51.594675,Республика Татарстан (Татарстан),92
Аргаяшский район,75206,argaiashskii-raion,2,,55.413719,60.758587,Челябинская область,75
Кусинский район,75238,kusinskii-raion,2,,55.412012,59.582603,Челябинская область,75
Мишкинский район,37222,mishkinskii-raion,2,,55.405715,63.810263,Курганская область,37
Юргамышский район,37246,iurgamyshskii-raion,2,,55.401636,64.432391,Курганская область,37
Демидовский район,662301,demidovskii-raion,2,,55.398707,31.703118,Смоленская область,66
Михайлово-Ярцевское поселение,45298564,mikhailovo-iartsevskoe-poselenie,2,,55.397552,37.139687,Москва,45
Кайбицкий район,92229,kaibitskii-raion,2,,55.396258,48.118546,Республика Татарстан (Татарстан),92
Щаповское поселение,45298583,shchapovskoe-poselenie,2,,55.391631,37.380848,Москва,45
Быстринский район,30204,bystrinskii-raion,2,,55.3891,157.891586,Камчатский край,30
Шумихинский район,37242,shumikhinskii-raion,2,,55.388783,63.216638,Курганская область,37
Наро-Фоминский,46238,naro-fominskii,2,,55.387776,36.522499,Московская область,46
Арзамас,22403,arzamas,2,,55.386666,43.815687,Нижегородская область,22
Духовщинский район,66216,dukhovshchinskii-raion,2,,55.381204,32.323693,Смоленская область,66
Воскресенский,46206,voskresenskii,2,,55.380713,38.645676,Московская область,46
Климовск,46436,klimovsk,2,,55.37501,37.538979,Московская область,46
Шумерлинский район,97250,shumerlinskii-raion,2,,55.374744,46.49935,Чувашская Республика - Чувашия,97
Тисульский район,32228,tisulskii-raion,2,,55.374503,88.134934,Кемеровская область,32
Меленковский район,17242,melenkovskii-raion,2,,55.368947,41.599624,Владимирская область,17
Кулебакский район,22238,kulebakskii-raion,2,,55.365177,42.601965,Нижегородская область,22
Манский район,4231,manskii-raion,2,,55.363463,93.642918,Красноярский край,4
Кемерово,32401,kemerovo,2,,55.354968,86.087314,Кемеровская область,32
Бирский,80213,birskii,2,,55.353161,55.532288,Республика Башкортостан,80
Ужурский район,4256,uzhurskii-raion,2,,55.347863,90.120463,Красноярский край,4
Мошковский район,50238,moshkovskii-raion,2,,55.345217,83.562986,Новосибирская область,50
Вороновское поселение,45298553,voronovskoe-poselenie,2,,55.323848,37.123122,Москва,45
Шарыповский район,4258,sharypovskii-raion,2,,55.318649,89.204765,Красноярский край,4
Муслюмовский район,92242,musliumovskii-raion,2,,55.315806,53.329394,Республика Татарстан (Татарстан),92
Клёновское,45298558,klionovskoe,2,,55.314208,37.326743,Москва,45
Топкинский район,32231,topkinskii-raion,2,,55.306809,85.421429,Кемеровская область,32
Балахтинский район,4204,balakhtinskii-raion,2,,55.30601,92.044402,Красноярский край,4
Ардатовский район,22202,ardatovskii-raion,2,,55.305656,43.158866,Нижегородская область,22
Егорьевский,46212,egorevskii,2,,55.304247,39.225494,Московская область,46
Краснооктябрьский район,22236,krasnooktiabrskii-raion,2,,55.30356,45.538045,Нижегородская область,22
Щучанский район,37244,shchuchanskii-raion,2,,55.303524,62.57861,Курганская область,37
Любинский район,52229,liubinskii-raion,2,,55.291177,72.547691,Омская область,52
Чистопольский район,92259,chistopolskii-raion,2,,55.280128,50.723678,Республика Татарстан (Татарстан),92
Лебяжьевский район,37218,lebiazhevskii-raion,2,,55.278744,66.542112,Курганская область,37
Нуримановский,80245,nurimanovskii,2,,55.272472,56.908444,Республика Башкортостан,80
Заинский район,92227,zainskii-raion,2,,55.271846,52.075229,Республика Татарстан (Татарстан),92
Сармановский район,92253,sarmanovskii-raion,2,,55.261223,52.590278,Республика Татарстан (Татарстан),92
Камско-Устьинский район,92230,kamsko-ustinskii-raion,2,,55.25519,49.035294,Республика Татарстан (Татарстан),92
Ибресинский район,97213,ibresinskii-raion,2,,55.25402,47.036732,Чувашская Республика - Чувашия,97
Сеченовский район,22249,sechenovskii-raion,2,,55.252783,45.926117,Нижегородская область,22
Апастовский район,92210,apastovskii-raion,2,,55.246261,48.45386,Республика Татарстан (Татарстан),92
Комсомольский район,97221,komsomolskii-raion,2,,55.244177,47.481793,Чувашская Республика - Чувашия,97
Гагинский район,22226,gaginskii-raion,2,,55.23135,44.989696,Нижегородская область,22
Сосновский  район,75252,sosnovskii-raion,2,,55.23099,61.198645,Челябинская область,75
Чановский район,50256,chanovskii-raion,2,,55.226061,77.014105,Новосибирская область,50
Роговское поселение,45298575,rogovskoe-poselenie,2,,55.220038,37.054733,Москва,45
Лосиноостровский,45280565,losinoostrovskii,2,,55.212555,37.052029,Москва,45
Шатковский район,22257,shatkovskii-raion,2,,55.207459,44.248208,Нижегородская область,22
Ярцевский район,662581,iartsevskii-raion,2,,55.205867,32.775015,Смоленская область,66
Благовещенский,80215,blagoveshchenskii,2,,55.204896,56.221197,Республика Башкортостан,80
Ирбейский район,4219,irbeiskii-raion,2,,55.201494,95.980748,Красноярский край,4
Сафоновский район,66241,safonovskii-raion,2,,55.200657,33.438951,Смоленская область,66
Вяземский район,66205,viazemskii-raion,2,,55.188344,34.269084,Смоленская область,66
Боровской район,29206,borovskoi-raion,2,,55.182978,36.428338,Калужская область,29
Выксунский район,22224,vyksunskii-raion,2,,55.178923,42.246142,Нижегородская область,22
Татарский район,50250,tatarskii-raion,2,,55.173375,75.806599,Новосибирская область,50
Злотоуст,75412,zlotoust,2,,55.171488,59.672641,Челябинская область,75
Порецкий район,97235,poretskii-raion,2,,55.169025,46.386127,Чувашская Республика - Чувашия,97
Челябинск,75558,cheliabinsk,2,,55.160026,61.40259,Челябинская область,75
Макушинский район,37220,makushinskii-raion,2,,55.158318,67.185988,Курганская область,37
Чулымский район,50259,chulymskii-raion,2,,55.155556,81.240185,Новосибирская область,50
Петуховский район,37226,petukhovskii-raion,2,,55.152994,67.98106,Курганская область,37
Яльчикский район,97255,ialchikskii-raion,2,,55.149686,47.906301,Чувашская Республика - Чувашия,97
Алексеевский район,92206,alekseevskii-raion,2,,55.148122,50.106275,Республика Татарстан (Татарстан),92
Усть-Удинский район,25246,ust-udinskii-raion,2,,55.134502,103.889695,Иркутская область,25
Темкинский район,66248,temkinskii-raion,2,,55.13372,34.978843,Смоленская область,66
Бакалинский,80207,bakalinskii,2,,55.132335,53.755986,Республика Башкортостан,80
Салаватский,80247,salavatskii,2,,55.129509,58.48823,Республика Башкортостан,80
Каргатский район,50219,kargatskii-raion,2,,55.123579,80.353566,Новосибирская область,50
пос. Локомотивный,755581,pos-lokomotivnyi,2,,55.118678,61.397379,Челябинская область,75
Копейск,754281,kopeisk,2,,55.116732,61.61797,Челябинская область,75
Чекмагушевский,80256,chekmagushevskii,2,,55.115918,54.623669,Республика Башкортостан,80
Обнинск,29415,obninsk,2,,55.112005,36.586531,Калужская область,29
